[{"latitude":46.04457908156832,"longitude":14.500681276270189,"name":"Mirje","ref_id":"602071","route_groups_on_station":["9"],"gtfs_id":"LPP:f2920a77-6c6c-494d-96b7-2a8caf8f374f"},{"latitude":46.04601642482285,"longitude":14.50218573734927,"name":"Križanke","ref_id":"602062","route_groups_on_station":["2","3","11","19","27"],"gtfs_id":"LPP:bea274aa-277a-403d-ab2f-a0342b28882e"},{"latitude":46.046206924846956,"longitude":14.501890739899812,"name":"Križanke","ref_id":"602061","route_groups_on_station":["2","3","11","19","27"],"gtfs_id":"LPP:25ad5579-f6a0-4f35-a0c9-0678b41e9dde"},{"latitude":46.04586210811592,"longitude":14.50071582758179,"name":"Mirje","ref_id":"602072","route_groups_on_station":["9"],"gtfs_id":"LPP:12618339-2c2d-49ec-b0e0-2517c11991f8"},{"latitude":46.04592218393601,"longitude":14.50612833324487,"name":"Gornji trg","ref_id":"602101","route_groups_on_station":["2","3","11","19","27"],"gtfs_id":"LPP:6182f8e8-c45e-4606-b4a4-d909bd44d2cc"},{"latitude":46.04575848571314,"longitude":14.506404983486894,"name":"Gornji trg","ref_id":"602102","route_groups_on_station":["2","3","11","19","27"],"gtfs_id":"LPP:a378ce5e-57ce-4c52-b219-568674b5cd5e"},{"latitude":46.04149310135918,"longitude":14.500038686046366,"name":"Ziherlova","ref_id":"602093","route_groups_on_station":["9"],"gtfs_id":"LPP:b60d686c-3b89-447c-93f6-2837d9af3d02"},{"latitude":46.04667149808583,"longitude":14.499275048329114,"name":"Aškerčeva","ref_id":"602052","route_groups_on_station":["1","6"],"gtfs_id":"LPP:087e50b6-7677-4a85-802f-5694266fe38b"},{"latitude":46.04663875548462,"longitude":14.49868751504146,"name":"Aškerčeva","ref_id":"602051","route_groups_on_station":["1","6"],"gtfs_id":"LPP:9bb1ed3b-5a6f-43c7-afaf-ba2b60ca1a7a"},{"latitude":46.04038105403082,"longitude":14.499701487566458,"name":"Ziherlova","ref_id":"602092","route_groups_on_station":["9"],"gtfs_id":"LPP:6a0b25cc-428e-47b5-831a-e89facfa7f26"},{"latitude":46.04877079441739,"longitude":14.50176933165357,"name":"Drama","ref_id":"602022","route_groups_on_station":["1","2","3","6","9","11","19","27"],"gtfs_id":"LPP:4062cd22-b67a-4235-9980-0178b7add592"},{"latitude":46.041893563323555,"longitude":14.509812063139062,"name":"Trnovo","ref_id":"602122","route_groups_on_station":["19"],"gtfs_id":"LPP:f1d7dbc8-d84b-4550-a3bd-e4748a677e9d"},{"latitude":46.04098943994494,"longitude":14.50918108568249,"name":"TRNOVO","ref_id":"602121","route_groups_on_station":["16","19"],"gtfs_id":"LPP:97788808-915f-4405-b54e-7ec5f95f7330"},{"latitude":46.04407468912032,"longitude":14.510882717118971,"name":"Privoz","ref_id":"602112","route_groups_on_station":["3","11","19","27"],"gtfs_id":"LPP:8f56b058-1ae3-44f5-8600-4330f2264d78"},{"latitude":46.04408472769663,"longitude":14.511281716734874,"name":"Privoz","ref_id":"602111","route_groups_on_station":["3","11","19","27"],"gtfs_id":"LPP:ecc4ae87-ae08-4b94-995c-452fdd94df7f"},{"latitude":46.04961326673757,"longitude":14.502457612107742,"name":"Drama","ref_id":"602021","route_groups_on_station":["1","2","3","6","9","11","19","27"],"gtfs_id":"LPP:fef200e9-4d98-425b-ab14-8110e2aa85d7"},{"latitude":46.03854009610686,"longitude":14.499928288271132,"name":"Murgle","ref_id":"603061","route_groups_on_station":["9"],"gtfs_id":"LPP:7962e05c-ad8c-43e4-9db4-4b90f0c94596"},{"latitude":46.03790546595098,"longitude":14.505476650240734,"name":"Veliki štradon","ref_id":"603082","route_groups_on_station":["16","19"],"gtfs_id":"LPP:96d4c75b-6452-4c70-a31e-c234262ba38b"},{"latitude":46.037868518738264,"longitude":14.500715391421725,"name":"Murgle","ref_id":"603064","route_groups_on_station":["9"],"gtfs_id":"LPP:f958cead-e4c3-4743-834d-46de4a06a8c9"},{"latitude":46.03774255261935,"longitude":14.505012479402257,"name":"Veliki štradon","ref_id":"603081","route_groups_on_station":["16","19"],"gtfs_id":"LPP:294c40c4-18e4-4d92-a947-911a8623de89"},{"latitude":46.03738531198905,"longitude":14.50361023764877,"name":"Opekarska","ref_id":"603171","route_groups_on_station":["9"],"gtfs_id":"LPP:aee8e842-6083-48a7-b14f-cc3d112537bb"},{"latitude":46.037148549651086,"longitude":14.503911441960199,"name":"Opekarska","ref_id":"603172","route_groups_on_station":["9"],"gtfs_id":"LPP:b0b32562-f5dc-4183-abba-5729adf98088"},{"latitude":46.04704144812466,"longitude":14.494322870182764,"name":"Tobačna","ref_id":"602041","route_groups_on_station":["1","6"],"gtfs_id":"LPP:d72032c7-d4b0-4eee-a87c-593985a42266"},{"latitude":46.05000411936025,"longitude":14.497363877001073,"name":"Cankarjev dom","ref_id":"602012","route_groups_on_station":["14","18"],"gtfs_id":"LPP:fc3967fb-5520-4fff-a819-f625242182e5"},{"latitude":46.04696286236259,"longitude":14.493442460567477,"name":"Tobačna","ref_id":"602042","route_groups_on_station":["1","6","45","46","47","48","51","54","56"],"gtfs_id":"LPP:e66e813a-722d-40f8-9ee9-1470d07bc200"},{"latitude":46.051409918009185,"longitude":14.503049411420571,"name":"Konzorcij","ref_id":"601012","route_groups_on_station":["1","2","3","6","9","11","14","18","19","27"],"gtfs_id":"LPP:b905ae6a-f1e1-4057-8923-481902ed5a8e"},{"latitude":46.05078363662649,"longitude":14.49833266979766,"name":"Cankarjev dom","ref_id":"602011","route_groups_on_station":["14","18"],"gtfs_id":"LPP:0be237aa-4b91-4d2b-ac23-0cebac975a0d"},{"latitude":46.05193912778263,"longitude":14.503349846425639,"name":"Pošta","ref_id":"601011","route_groups_on_station":["1","2","3","6","9","11","14","18","19","27"],"gtfs_id":"LPP:5d7f28a6-2a2a-4333-aa06-48edfb652f86"},{"latitude":46.05035292803693,"longitude":14.510503255855335,"name":"Lutkovno gl.","ref_id":"501032","route_groups_on_station":["2"],"gtfs_id":"LPP:b829062a-2644-4350-b998-74522d9e85d8"},{"latitude":46.050484296633286,"longitude":14.510651691555733,"name":"Lutkovno gl.","ref_id":"501031","route_groups_on_station":["2"],"gtfs_id":"LPP:a9796806-8cd3-4b76-bf8c-4340aec35c9e"},{"latitude":46.04571836061939,"longitude":14.490460044451936,"name":"Hajdrihova","ref_id":"602031","route_groups_on_station":["1","6","45","46","47","48","49","51","54","56"],"gtfs_id":"LPP:b59656a4-b6e7-4b87-977c-078c59088a50"},{"latitude":46.05140527253405,"longitude":14.510719016944469,"name":"Zmajski most","ref_id":"501021","route_groups_on_station":["13","20","68","69","76","78","82"],"gtfs_id":"LPP:f073b9d9-a3e3-4d04-a209-0db55377b79e"},{"latitude":46.04580323252228,"longitude":14.49006330078456,"name":"Hajdrihova","ref_id":"602032","route_groups_on_station":["1","6"],"gtfs_id":"LPP:ef91fd44-5651-4fd4-b6f8-619fdef9da7b"},{"latitude":46.04461559914941,"longitude":14.516821206299472,"name":"Streliška","ref_id":"502031","route_groups_on_station":["11"],"gtfs_id":"LPP:fa96d420-d1af-4ad0-bf6a-4544deb1c5eb"},{"latitude":46.04083730142569,"longitude":14.489917655092578,"name":"Gerbičeva","ref_id":"603021","route_groups_on_station":["1"],"gtfs_id":"LPP:94c6598b-7303-42e1-94d5-156d7a25f630"},{"latitude":46.052949185592624,"longitude":14.498143747963594,"name":"Bleiweisova","ref_id":"701011","route_groups_on_station":["45","46","47","48","49","51","54","56"],"gtfs_id":"IJPP:1121831"},{"latitude":46.04206743341863,"longitude":14.489382723199725,"name":"Jadranska","ref_id":"603012","route_groups_on_station":["1"],"gtfs_id":"LPP:67d66d40-e8ba-4bc0-a9cf-814dce3ccbea"},{"latitude":46.0536224704492,"longitude":14.504161970332195,"name":"Ajdovščina","ref_id":"600021","route_groups_on_station":["1","2","3","6","9","11","14","18","19","27"],"gtfs_id":"LPP:6efecef0-52ba-4a47-9991-9bab5ce31340"},{"latitude":46.05232493919745,"longitude":14.510248521884751,"name":"Zmajski most","ref_id":"501022","route_groups_on_station":["13","20","68","69","76","78","82"],"gtfs_id":"LPP:639551cf-fe23-4363-8ccd-655bc5d4119e"},{"latitude":46.0406662371267,"longitude":14.489850461975987,"name":"Gerbičeva","ref_id":"603022","route_groups_on_station":["1"],"gtfs_id":"LPP:d9a82add-03d0-47d8-9f35-117b7a5ded44"},{"latitude":46.0530535431688,"longitude":14.497929073009784,"name":"Bleiweisova","ref_id":"701012","route_groups_on_station":["45","46","47","48","51","54","56"]},{"latitude":46.053762229983064,"longitude":14.504131757340165,"name":"Ajdovščina","ref_id":"600022","route_groups_on_station":["1","2","3","6","9","11","14","18","19","27"],"gtfs_id":"LPP:a719a87c-4e93-4387-a6d1-2631a487f7e0"},{"latitude":46.05032206120224,"longitude":14.51411334117184,"name":"Poljanska","ref_id":"502012","route_groups_on_station":["2","13","20"],"gtfs_id":"LPP:8c7fa045-888b-46d0-8189-6f82623bf481"},{"latitude":46.0436190015123,"longitude":14.488517357337741,"name":"Jadranska","ref_id":"603011","route_groups_on_station":["1"],"gtfs_id":"LPP:889e3719-7d29-4888-b690-5a1531d2930e"},{"latitude":46.050415182474296,"longitude":14.514440440537097,"name":"Poljanska","ref_id":"502011","route_groups_on_station":["2","13","20"],"gtfs_id":"LPP:48e907fd-e868-47cd-8cac-74c7d4582944"},{"latitude":46.053881766652985,"longitude":14.506376077127886,"name":"Dalmatinova","ref_id":"600032","route_groups_on_station":["5","13","20"],"gtfs_id":"LPP:38b3abed-0592-407b-96c3-85a026f2e192"},{"latitude":46.051216800744,"longitude":14.492358331698568,"name":"Pod Rožnikom","ref_id":"702011","route_groups_on_station":["14"],"gtfs_id":"LPP:ad966374-a37d-443a-9a3e-ec85ca28231f"},{"latitude":46.0360206156614,"longitude":14.513098218638348,"name":"Ižanska","ref_id":"603121","route_groups_on_station":["27"],"gtfs_id":"LPP:d2ff7ae5-59fc-4894-aa50-a7f16b5e3534"},{"latitude":46.033328106263866,"longitude":14.501923687218099,"name":"Pot na Rakovo jelšo","ref_id":"603072","route_groups_on_station":["9","16"],"gtfs_id":"LPP:5de6ff80-1352-43df-b5ec-1df59f2f492b"},{"latitude":46.03944305707432,"longitude":14.516998075097007,"name":"Strelišče","ref_id":"503011","route_groups_on_station":["3","27","68","69","76","78","82"],"gtfs_id":"LPP:c8e0086c-0cef-4375-a471-72f3ae1e34fc"},{"latitude":46.05110624679304,"longitude":14.491842256453289,"name":"Pod Rožnikom","ref_id":"702012","route_groups_on_station":["14"],"gtfs_id":"LPP:3d8122ff-0840-4811-a5ad-c4702fc70269"},{"latitude":46.044981742799514,"longitude":14.518372170423334,"name":"Streliška","ref_id":"502032","route_groups_on_station":["11"],"gtfs_id":"LPP:3cb0ccbb-9b91-4d71-bd27-2acef732be4c"},{"latitude":46.03558753059646,"longitude":14.51292589589644,"name":"Ižanska","ref_id":"603122","route_groups_on_station":["27"],"gtfs_id":"LPP:5f2b93f1-7933-45ed-915c-4488ab8d81b7"},{"latitude":46.038558802762054,"longitude":14.516652950063985,"name":"Orlova","ref_id":"503014","route_groups_on_station":["27"],"gtfs_id":"LPP:41489be9-b3b7-4cbe-90f8-af1a435b2676"},{"latitude":46.05459933629649,"longitude":14.506793319401538,"name":"Tavčarjeva","ref_id":"500011","route_groups_on_station":["5","13","20"],"gtfs_id":"LPP:9b85d4b0-c594-4e0e-9ce2-d0986256c270"},{"latitude":46.05490626935668,"longitude":14.503716949310403,"name":"Gosposvetska","ref_id":"700011","route_groups_on_station":["1","3","5","7","8","25"],"gtfs_id":"LPP:16578e36-c682-4083-bd29-4973445dc0fe"},{"latitude":46.049783383901925,"longitude":14.516542468239784,"name":"Ambrožev trg","ref_id":"502014","route_groups_on_station":["2","5","13","20"],"gtfs_id":"LPP:023d7b7a-b411-4e61-8746-b07f9e5c8f90"},{"latitude":46.03286746834803,"longitude":14.501380933018648,"name":"Pot na Rakovo jelšo","ref_id":"603071","route_groups_on_station":["9","16"],"gtfs_id":"LPP:1505c6fe-6080-424e-98d1-24c312cfacf3"},{"latitude":46.034205161263046,"longitude":14.511115324279968,"name":"Livada","ref_id":"603091","route_groups_on_station":["19"],"gtfs_id":"LPP:4ed69cbb-d738-450c-be11-7d96cd50ee50"},{"latitude":46.04977416342085,"longitude":14.516916617763334,"name":"Ambrožev trg","ref_id":"502013","route_groups_on_station":["2","5","13","20"],"gtfs_id":"LPP:aa42017d-812a-4175-bc9b-0fec03b18931"},{"latitude":46.053056457151996,"longitude":14.513492118897961,"name":"Ilirska","ref_id":"501011","route_groups_on_station":["5"],"gtfs_id":"LPP:22ef2062-46f0-4a46-8d9a-6ceb7b7f45bc"},{"latitude":46.05289306377461,"longitude":14.513902539653984,"name":"Ilirska","ref_id":"501012","route_groups_on_station":["5"],"gtfs_id":"LPP:eead721b-8996-4e73-a2f9-02dba20df4fa"},{"latitude":46.049470092355044,"longitude":14.488174347175713,"name":"Študentsko naselje","ref_id":"702021","route_groups_on_station":["14"],"gtfs_id":"LPP:ff1f708c-989e-4cc5-8e75-02717b5f9744"},{"latitude":46.0382487254907,"longitude":14.518193134575956,"name":"Strelišče","ref_id":"503012","route_groups_on_station":["3","68","69","76","78","82"],"gtfs_id":"LPP:e7789f42-0ad7-44d1-974b-42a3f4957291"},{"latitude":46.03660886519545,"longitude":14.489423728291971,"name":"Krimska","ref_id":"603031","route_groups_on_station":["1"],"gtfs_id":"LPP:64ea9f57-1f7f-465e-8721-55e26faee36a"},{"latitude":46.04935461880453,"longitude":14.48749317633616,"name":"Študentsko naselje","ref_id":"702022","route_groups_on_station":["14"],"gtfs_id":"LPP:4f681273-89fe-44f9-aaec-76950722cc52"},{"latitude":46.04836121470528,"longitude":14.51949491382894,"name":"Cukrarna","ref_id":"502021","route_groups_on_station":["11"],"gtfs_id":"LPP:95eee7e8-237d-4410-a9bf-00c6f88129c1"},{"latitude":46.0366120218806,"longitude":14.488986926573585,"name":"Krimska","ref_id":"603032","route_groups_on_station":["1"],"gtfs_id":"LPP:339ec74c-f45b-4f23-98b8-7ac67486ff6d"},{"latitude":46.056127816187626,"longitude":14.502123332668676,"name":"Gosposvetska","ref_id":"700012","route_groups_on_station":["1","3","5","7","8","25"],"gtfs_id":"LPP:717dda7e-d793-4697-8f60-b64ee8b1edc4"},{"latitude":46.05620922714199,"longitude":14.505406364005065,"name":"Bavarski dvor","ref_id":"600011","route_groups_on_station":["2","3","5","6","7","8","9","11","13","14","18","19","20","25","27","51","56"],"gtfs_id":"LPP:295616c0-387b-4f60-a337-7743cd6be04e"},{"latitude":46.03320228899749,"longitude":14.512451281080388,"name":"Livada","ref_id":"603092","route_groups_on_station":["19"],"gtfs_id":"LPP:cce39cbe-6961-433a-a787-64fbf602f470"},{"latitude":46.049264479130635,"longitude":14.519642887209585,"name":"Cukrarna","ref_id":"502024","route_groups_on_station":["2","11","20"],"gtfs_id":"LPP:9b0074d2-2c92-4c01-830b-00be8e05b412"},{"latitude":46.05655092100059,"longitude":14.505422989436322,"name":"Bavarski dvor","ref_id":"600012","route_groups_on_station":["1","2","3","5","6","7","8","9","11","13","14","18","19","20","25","27","51","56"],"gtfs_id":"LPP:c87db9be-1fba-4102-a743-0ee4317dd5af"},{"latitude":46.05249921677039,"longitude":14.516756404935254,"name":"Hrvatski trg","ref_id":"402011","route_groups_on_station":["5"],"gtfs_id":"LPP:cab36767-e95a-4f60-978e-92490f2517b2"},{"latitude":46.048723956717524,"longitude":14.52020151665137,"name":"Cukrarna","ref_id":"502022","route_groups_on_station":["5","13"],"gtfs_id":"LPP:d5102041-8282-4c77-a593-edac0d0d4a34"},{"latitude":46.03310530835847,"longitude":14.51318374154086,"name":"Galjevica","ref_id":"603162","route_groups_on_station":["27"],"gtfs_id":"LPP:db046e79-c658-433c-8812-157fd965a9f6"},{"latitude":46.03318228517608,"longitude":14.513371060249678,"name":"Galjevica","ref_id":"603161","route_groups_on_station":["27"],"gtfs_id":"LPP:b56664c0-1dc1-42c5-b10b-52c3fb0dd042"},{"latitude":46.052222142081646,"longitude":14.51805674451882,"name":"Hrvatski trg","ref_id":"402012","route_groups_on_station":["5"],"gtfs_id":"LPP:557f714a-6f4a-4c98-8c5a-d74fa34b2adb"},{"latitude":46.04381353701049,"longitude":14.483851925771793,"name":"Vič Glince","ref_id":"703081","route_groups_on_station":["6","46","47","48","51","54","56"],"gtfs_id":"LPP:0e79ef8c-f692-4e29-a37e-4a81cbb3d410"},{"latitude":46.043975188677365,"longitude":14.48376150394095,"name":"Vič Glince","ref_id":"703082","route_groups_on_station":["6","46","47","48","51","54","56"],"gtfs_id":"LPP:659ee31d-ae12-4498-8507-28579d322e32"},{"latitude":46.05261046471199,"longitude":14.488079046188197,"name":"Svetčeva","ref_id":"702031","route_groups_on_station":["18"],"gtfs_id":"LPP:245bb1a4-ea6e-45b4-8331-b50983655326"},{"latitude":46.05771980693072,"longitude":14.508122616029567,"name":"KOLODVOR","ref_id":"300015","route_groups_on_station":["18"],"gtfs_id":"LPP:db9f7130-0bc2-4f3e-b8cd-07cfe96b1f8f"},{"latitude":46.05296394171425,"longitude":14.487135581434988,"name":"Svetčeva","ref_id":"702032","route_groups_on_station":["18"],"gtfs_id":"LPP:ee3713fe-016c-47eb-96d1-f760c9d19010"},{"latitude":46.05765849482998,"longitude":14.509347111277467,"name":"Kolodvor","ref_id":"300011","route_groups_on_station":["2","9","12","25","27"],"gtfs_id":"LPP:306dcdea-b1ce-4357-ba5e-fa82293630df"},{"latitude":46.04893425272288,"longitude":14.522732440599368,"name":"Gornje Poljane","ref_id":"402061","route_groups_on_station":["5","13"],"gtfs_id":"LPP:923bd774-0651-4e0a-8624-3acfb7ecd5ff"},{"latitude":46.05335729684588,"longitude":14.519001341475473,"name":"Poliklinika","ref_id":"402022","route_groups_on_station":["9","25"],"gtfs_id":"LPP:9a938b49-ce1d-4e1c-a789-e316630ebc4f"},{"latitude":46.05772491004307,"longitude":14.509928175090725,"name":"Ljubljana AP","ref_id":"300013","route_groups_on_station":["45","46","47","48","49","51","54","56","60","68","69","76","78","82"]},{"latitude":46.057573121529174,"longitude":14.511195682031877,"name":"Kolodvor","ref_id":"300012","route_groups_on_station":["2","9","12","25","27"],"gtfs_id":"LPP:7eb88e01-82e9-4af4-84d0-69c6ea9dc82c"},{"latitude":46.04799928880887,"longitude":14.482653297922923,"name":"Rožna dolina","ref_id":"703011","route_groups_on_station":["14"],"gtfs_id":"LPP:f1b7471e-db71-49da-846d-1232cb3e8f8f"},{"latitude":46.053649099283206,"longitude":14.5191737965513,"name":"Poliklinika","ref_id":"402021","route_groups_on_station":["9","25"],"gtfs_id":"LPP:67c3adc1-a92d-4528-91ee-77d8b52574c6"},{"latitude":46.05243308991905,"longitude":14.520597076214223,"name":"Klinični center","ref_id":"402031","route_groups_on_station":["2","9","11","20","25"],"gtfs_id":"LPP:3429cda2-6047-453c-bf54-952dfa6674c0"},{"latitude":46.0523150495647,"longitude":14.520920812936316,"name":"Klinični center","ref_id":"402032","route_groups_on_station":["2","9","11","20","25"],"gtfs_id":"LPP:f4cfd904-bd11-4247-95df-32c4555a930f"},{"latitude":46.04790677026385,"longitude":14.482087881640428,"name":"Rožna dolina","ref_id":"703012","route_groups_on_station":["14"],"gtfs_id":"LPP:eaad1ba5-14a4-494f-80ae-65294c29a962"},{"latitude":46.03038901249185,"longitude":14.49313668522677,"name":"Park varne mobilnosti","ref_id":"603202","route_groups_on_station":["16"],"gtfs_id":"LPP:c3534bc6-7bfd-43be-b46a-2b0fced57ab8"},{"latitude":46.03165962242845,"longitude":14.516355408794492,"name":"Golouhova","ref_id":"603152","route_groups_on_station":["27"],"gtfs_id":"LPP:ba59baf4-dd00-40a5-80e7-3eee6b9d8b09"},{"latitude":46.035367348625215,"longitude":14.48443122465449,"name":"Koprska","ref_id":"603041","route_groups_on_station":["1"],"gtfs_id":"LPP:b7834e14-7e86-4df5-83ce-006c93c31c00"},{"latitude":46.045629899914026,"longitude":14.480826471615448,"name":"Cesta XV","ref_id":"703022","route_groups_on_station":["14"],"gtfs_id":"LPP:07b4c585-66cf-49d7-906c-50f1122c8e9e"},{"latitude":46.04872329277194,"longitude":14.524467976769186,"name":"Gornje Poljane","ref_id":"402062","route_groups_on_station":["5","13"],"gtfs_id":"LPP:0614b134-0950-4f6b-bc8f-fb73a0881bc1"},{"latitude":46.04594858685515,"longitude":14.480814321003281,"name":"Cesta XV","ref_id":"703021","route_groups_on_station":["14"],"gtfs_id":"LPP:6932c2e0-ff32-4170-b519-fba88e29c147"},{"latitude":46.03631396743803,"longitude":14.52280401266647,"name":"Rakovnik","ref_id":"503021","route_groups_on_station":["3","82"],"gtfs_id":"LPP:f2fc2702-e9da-4c36-b6fc-9f52199e4574"},{"latitude":46.031422596648106,"longitude":14.517054374408325,"name":"Golouhova","ref_id":"603151","route_groups_on_station":["27"],"gtfs_id":"LPP:163da3ae-0ab9-480e-b72d-16357e0a9061"},{"latitude":46.02995850325718,"longitude":14.492149448833462,"name":"Park varne mobilnosti","ref_id":"603201","route_groups_on_station":["16"],"gtfs_id":"LPP:ea80411c-360d-4a33-861c-6533a1d67eef"},{"latitude":46.035272096240476,"longitude":14.483460129051377,"name":"Koprska","ref_id":"603044","route_groups_on_station":["1"],"gtfs_id":"LPP:e3b51371-e289-45ef-83ca-1f4ffff25162"},{"latitude":46.05972416204005,"longitude":14.509243464488492,"name":"Navje","ref_id":"100012","route_groups_on_station":["3","11","12"],"gtfs_id":"LPP:8512e1be-4637-483b-a3e6-78ccc6d2c5b1"},{"latitude":46.057534905230185,"longitude":14.516734590603274,"name":"Friškovec","ref_id":"301012","route_groups_on_station":["2","9","12","25","27"],"gtfs_id":"LPP:f1bc11ca-7516-447a-b826-7051c5306af7"},{"latitude":46.06024925863737,"longitude":14.497711301893574,"name":"Tivoli","ref_id":"801012","route_groups_on_station":["1","3","5","7","8","25","60"],"gtfs_id":"IJPP:1165687"},{"latitude":46.03547957549881,"longitude":14.5240307872133,"name":"Rakovnik","ref_id":"503022","route_groups_on_station":["3","82"],"gtfs_id":"LPP:9741988b-6723-480b-a419-8db7490d667a"},{"latitude":46.0282306619564,"longitude":14.511866038732483,"name":"Ilovica","ref_id":"603101","route_groups_on_station":["19"]},{"latitude":46.060693727760665,"longitude":14.507109484946202,"name":"Razstavišče","ref_id":"100021","route_groups_on_station":["3","6","7","8","11","12","13","14","19","20"],"gtfs_id":"LPP:f33b721f-a8a3-4aad-96f2-077da09ebaa6"},{"latitude":46.06044337215237,"longitude":14.497162927751866,"name":"Tivoli","ref_id":"801011","route_groups_on_station":["1","3","5","7","8","25","60"],"gtfs_id":"LPP:7484317c-269f-425f-8118-23eedab4e5f1"},{"latitude":46.02697684662573,"longitude":14.499829330499676,"name":"BARJE P+R","ref_id":"603181","route_groups_on_station":["9"],"gtfs_id":"LPP:7fcb0952-c77f-44b5-adf3-0aa2a2b8550a"},{"latitude":46.02780233737735,"longitude":14.511614657224847,"name":"Ilovica","ref_id":"603102","route_groups_on_station":["19"],"gtfs_id":"LPP:baab981f-b707-4b2e-8291-6175f7ceb255"},{"latitude":46.05743182147702,"longitude":14.518346572914368,"name":"Friškovec","ref_id":"301011","route_groups_on_station":["2","9","12","25","27"],"gtfs_id":"LPP:c22879e5-8e90-4540-9a74-5f139208e492"},{"latitude":46.050298762788245,"longitude":14.52647795579683,"name":"Glonarjeva","ref_id":"402051","route_groups_on_station":["5"],"gtfs_id":"LPP:ee837fd9-7a5c-4f14-bbd7-a46f14eb07c5"},{"latitude":46.06115921299417,"longitude":14.507648311161578,"name":"Razstavišče","ref_id":"100022","route_groups_on_station":["6","7","8","11","13","14","19","20"],"gtfs_id":"LPP:318d4398-e152-498b-b4ff-1344c67adba6"},{"latitude":46.042101680979414,"longitude":14.477929299515761,"name":"Vič","ref_id":"703091","route_groups_on_station":["6","45","46","47","48","49","51","54","56"],"gtfs_id":"LPP:25c85d19-456c-4188-b563-15ad467a54c7"},{"latitude":46.04229840964592,"longitude":14.477842231927482,"name":"Vič","ref_id":"703092","route_groups_on_station":["6","45","46","47","48","51","54","56"],"gtfs_id":"LPP:7294875b-8482-484a-b04d-95b921612001"},{"latitude":46.05132018323867,"longitude":14.479674778247933,"name":"Večna pot","ref_id":"703181","route_groups_on_station":["18"],"gtfs_id":"LPP:7a256ec6-bb93-47eb-af92-ea62941c1dc6"},{"latitude":46.050571626483496,"longitude":14.527081132564854,"name":"Glonarjeva","ref_id":"402052","route_groups_on_station":["5"],"gtfs_id":"LPP:86303165-4af4-4fcd-b0f9-43ed865454f4"},{"latitude":46.05088961787435,"longitude":14.478593261645546,"name":"Večna pot","ref_id":"703182","route_groups_on_station":["18"],"gtfs_id":"LPP:01d1f388-d915-4e9f-bc3d-4432a73a216e"},{"latitude":46.06103968748721,"longitude":14.5132960445235,"name":"ŽELEZNA","ref_id":"201011","route_groups_on_station":["3","11","12"],"gtfs_id":"LPP:d8289ab1-f65d-4b3d-8b4b-55ada004f023"},{"latitude":46.06125433750317,"longitude":14.513248855397979,"name":"ŽELEZNA","ref_id":"201012","route_groups_on_station":["6"],"gtfs_id":"LPP:1308dcf9-a9e1-4e54-95c9-0f2afaac889b"},{"latitude":46.0295826802633,"longitude":14.521110047265843,"name":"Mihov štradon","ref_id":"503051","route_groups_on_station":["27"],"gtfs_id":"LPP:4a95f1f8-a457-4dcf-bd1f-6307d4300ea0"},{"latitude":46.04841496955946,"longitude":14.529775463846997,"name":"Pod Golovcem","ref_id":"403032","route_groups_on_station":["13"],"gtfs_id":"LPP:47252dc3-dbd8-43df-898b-0a3fb27ffc93"},{"latitude":46.04856094155957,"longitude":14.529890681713864,"name":"Pod Golovcem","ref_id":"403031","route_groups_on_station":["13"],"gtfs_id":"LPP:d867fec1-5147-43db-b004-08d2797f50e3"},{"latitude":46.04489340285184,"longitude":14.475148006958525,"name":"Jamnikarjeva","ref_id":"703031","route_groups_on_station":["14"],"gtfs_id":"LPP:c568fe2e-477f-4af2-ad68-cb8111f361d0"},{"latitude":46.059411374727475,"longitude":14.520621868483126,"name":"Viadukt","ref_id":"202011","route_groups_on_station":["2","12","27"],"gtfs_id":"LPP:f14a6236-8af2-47bf-9270-432377662a63"},{"latitude":46.03879042176055,"longitude":14.47556382983258,"name":"Tomažičeva","ref_id":"603211","route_groups_on_station":["16"],"gtfs_id":"LPP:72e6ae6e-bd4b-4946-a032-7ff9b8b41039"},{"latitude":46.02899929441605,"longitude":14.522042744356833,"name":"Mihov štradon","ref_id":"503052","route_groups_on_station":["27"],"gtfs_id":"LPP:c86d5f37-52ee-4e3a-99b5-b9554118c4d5"},{"latitude":46.03386026085012,"longitude":14.478344482655274,"name":"Tbilisijska","ref_id":"603141","route_groups_on_station":["1"],"gtfs_id":"LPP:a12ab184-fb4b-449f-9884-88e0a1672e64"},{"latitude":46.0382881220726,"longitude":14.47556856251884,"name":"Tomažičeva","ref_id":"603212","route_groups_on_station":["16"],"gtfs_id":"LPP:022ef61f-a226-42e8-b11d-30cf9f9a6688"},{"latitude":46.05957506304405,"longitude":14.520962056123448,"name":"Viadukt","ref_id":"202012","route_groups_on_station":["2","12","27"],"gtfs_id":"LPP:712ee105-4fab-498a-af5c-496ca9830f5f"},{"latitude":46.0638771403112,"longitude":14.50464596208883,"name":"Parmova","ref_id":"101022","route_groups_on_station":["14"],"gtfs_id":"LPP:106bdc28-f0fe-4f13-b4ad-6c6a630550b5"},{"latitude":46.06374005200033,"longitude":14.507465463613887,"name":"Parmova","ref_id":"101021","route_groups_on_station":["14"],"gtfs_id":"LPP:c6eab761-36e0-4bf8-88ed-48e594ed375b"},{"latitude":46.03387224993902,"longitude":14.477944803472223,"name":"Tbilisijska","ref_id":"603142","route_groups_on_station":["1"],"gtfs_id":"LPP:35dbaf26-2fa4-45c4-87fc-81d1ff13b005"},{"latitude":46.02455292807993,"longitude":14.511258052080212,"name":"Lahova pot","ref_id":"603111","route_groups_on_station":["19"],"gtfs_id":"IJPP:1167232"},{"latitude":46.05423551624649,"longitude":14.528111500868212,"name":"Bolnica","ref_id":"402041","route_groups_on_station":["2","9","11","20","25"],"gtfs_id":"LPP:fac22b83-1bc0-4c12-8533-485b115409ef"},{"latitude":46.045225017880206,"longitude":14.47397293089054,"name":"Jamnikarjeva","ref_id":"703032","route_groups_on_station":["14"],"gtfs_id":"LPP:43e01b7e-be2c-4282-be1b-9f628ca67327"},{"latitude":46.02432315961766,"longitude":14.51103971692962,"name":"Lahova pot","ref_id":"603112","route_groups_on_station":["19"],"gtfs_id":"LPP:d861c2ce-106a-4b95-a4fc-2af355c0bbf0"},{"latitude":46.034045536655185,"longitude":14.47732351555654,"name":"Tbilisijska","ref_id":"603143","route_groups_on_station":["16"],"gtfs_id":"LPP:41c8c7eb-62ef-45d8-b5b1-221dd3c0022c"},{"latitude":46.06351820057792,"longitude":14.511629429888021,"name":"Bežigrad","ref_id":"101032","route_groups_on_station":["6","7","13","20","22"],"gtfs_id":"LPP:e6f5183b-c615-4f47-b4fb-204ee070e825"},{"latitude":46.03051463866298,"longitude":14.480692276851881,"name":"C. dveh cesarjev","ref_id":"704161","route_groups_on_station":["16"],"gtfs_id":"LPP:da623aed-094d-4c3c-9766-9f0aba0f40f6"},{"latitude":46.03408364681442,"longitude":14.477066803785139,"name":"Tbilisijska","ref_id":"603144","route_groups_on_station":["16"],"gtfs_id":"LPP:2d42d8e2-26a8-4a74-809c-f436d05c8a54"},{"latitude":46.06377198743333,"longitude":14.51170293033344,"name":"Bežigrad","ref_id":"101031","route_groups_on_station":["3","7","11","12","13","20","22"],"gtfs_id":"LPP:cdabf1ea-b04c-480a-8359-72c46e6864ab"},{"latitude":46.063847193176215,"longitude":14.494406373626354,"name":"Stara cerkev","ref_id":"802011","route_groups_on_station":["1","3","5","7","8","25"],"gtfs_id":"LPP:98fa3880-5936-4ec8-ba04-39c7ff9a0e6a"},{"latitude":46.03085459525508,"longitude":14.479537295256112,"name":"C. dveh cesarjev","ref_id":"704162","route_groups_on_station":["16"],"gtfs_id":"LPP:f11e48f8-4133-4c36-a36f-73b4f33d9592"},{"latitude":46.05442020059422,"longitude":14.52930689100994,"name":"Bolnica","ref_id":"402042","route_groups_on_station":["2","9","11","20","25"],"gtfs_id":"LPP:dd57f39b-be0f-479e-bc35-5bd2edf98ff2"},{"latitude":46.03243875993698,"longitude":14.528571508111995,"name":"Akademija","ref_id":"503032","route_groups_on_station":["3"],"gtfs_id":"LPP:9cd1e7f8-8ccf-4469-bc25-25d138605c67"},{"latitude":46.040139594708904,"longitude":14.473076808662263,"name":"Bonifacija","ref_id":"703102","route_groups_on_station":["6","16"],"gtfs_id":"LPP:c297ac70-8f43-4fbc-a8a4-366ddb883a8d"},{"latitude":46.064856375623904,"longitude":14.508736530153918,"name":"Astra","ref_id":"101051","route_groups_on_station":["6","8","11","19","22"],"gtfs_id":"LPP:a2ce7e6f-0f99-443a-a973-81a0b9c60261"},{"latitude":46.065298091748005,"longitude":14.502941762894057,"name":"Bratov Židan","ref_id":"101061","route_groups_on_station":["14"],"gtfs_id":"LPP:548a85bd-f15f-427b-ad90-43cb50e9e31a"},{"latitude":46.06539101707486,"longitude":14.503076769559804,"name":"Bratov Židan","ref_id":"101062","route_groups_on_station":["14"],"gtfs_id":"LPP:2edaabef-ed43-4b87-ba95-a5600c33250f"},{"latitude":46.06500340722182,"longitude":14.50910151184304,"name":"Astra","ref_id":"101052","route_groups_on_station":["6","8","11","19","22"],"gtfs_id":"LPP:1ce1c3a8-e0f6-4f90-b1aa-1448759d8b3c"},{"latitude":46.039667829572636,"longitude":14.47267558171447,"name":"Bonifacija","ref_id":"703101","route_groups_on_station":["6","16"],"gtfs_id":"LPP:8375ab17-e389-42b2-9b88-0210a049e321"},{"latitude":46.03220276241301,"longitude":14.529259506748513,"name":"Akademija","ref_id":"503031","route_groups_on_station":["3"],"gtfs_id":"LPP:397418bc-78a7-45c9-b5cf-374fe21cee11"},{"latitude":46.06498811972028,"longitude":14.49416045398979,"name":"Stara cerkev","ref_id":"802012","route_groups_on_station":["1","3","5","7","8","25"],"gtfs_id":"LPP:54c591c0-7bbb-4489-9229-57b18f95827a"},{"latitude":46.06508934434276,"longitude":14.51380550388939,"name":"Kržičeva","ref_id":"101034","route_groups_on_station":["13","20"],"gtfs_id":"LPP:c9b2488c-cca9-4b84-83cb-638ef545c851"},{"latitude":46.053236836333056,"longitude":14.532814735764461,"name":"Jana Husa","ref_id":"403011","route_groups_on_station":["5"],"gtfs_id":"LPP:6bc92f4c-414c-456b-9150-d58a7689d26e"},{"latitude":46.05317498699911,"longitude":14.533083354598972,"name":"Jana Husa","ref_id":"403012","route_groups_on_station":["5"],"gtfs_id":"LPP:f4e99ece-e89e-4322-80c6-5a91df65f64e"},{"latitude":46.06675612541409,"longitude":14.50484745973075,"name":"Samova","ref_id":"102012","route_groups_on_station":["22"],"gtfs_id":"LPP:8f623f1d-48a7-46b5-9331-28a8dc980876"},{"latitude":46.06469642583071,"longitude":14.517198508708603,"name":"Prekmurska","ref_id":"202022","route_groups_on_station":["7","22"],"gtfs_id":"LPP:d7748049-2f69-4c77-a19b-96774a521ac1"},{"latitude":46.052131157846944,"longitude":14.472137340423952,"name":"Živalski vrt-ZOO","ref_id":"703121","route_groups_on_station":["18"],"gtfs_id":"LPP:b91edda3-a147-4599-bebf-85e145de085b"},{"latitude":46.064879767276,"longitude":14.517277139330432,"name":"Prekmurska","ref_id":"202021","route_groups_on_station":["7","22"],"gtfs_id":"LPP:07bad99d-070a-42f7-8766-d11d42152623"},{"latitude":46.067106081972895,"longitude":14.505334009290777,"name":"Samova","ref_id":"102011","route_groups_on_station":["22"],"gtfs_id":"LPP:3866c761-7fa4-4a4a-b913-75569da498d9"},{"latitude":46.045957451977,"longitude":14.469598319109831,"name":"Viško polje","ref_id":"703041","route_groups_on_station":["14"],"gtfs_id":"LPP:404f8444-540d-4d82-a355-30a6a8bec797"},{"latitude":46.062253539913314,"longitude":14.524204332949477,"name":"Savsko naselje","ref_id":"202041","route_groups_on_station":["2"],"gtfs_id":"LPP:cbf8e64b-fd0d-48ec-8fb1-03b298cc13b3"},{"latitude":46.05279928316414,"longitude":14.471696761468905,"name":"Živalski vrt-ZOO","ref_id":"703122","route_groups_on_station":["18"],"gtfs_id":"LPP:bc19ad1c-00fc-47f1-926e-ddeb12f686ba"},{"latitude":46.066926310393285,"longitude":14.495860097231628,"name":"Drenikova","ref_id":"802052","route_groups_on_station":["22"],"gtfs_id":"LPP:8561e9fb-03e0-46f1-802d-b376d26a8ea5"},{"latitude":46.06706801825135,"longitude":14.496106177300867,"name":"Drenikova","ref_id":"802051","route_groups_on_station":["22"],"gtfs_id":"LPP:8d775324-59ca-429e-ad7e-8d522c52dbdd"},{"latitude":46.04637368706385,"longitude":14.469007219638339,"name":"Viško polje","ref_id":"703042","route_groups_on_station":["14"],"gtfs_id":"LPP:896f7627-7c1c-4742-a40a-6aadb85fe206"},{"latitude":46.03033040707446,"longitude":14.531703902547477,"name":"Peruzzijeva","ref_id":"503042","route_groups_on_station":["3"],"gtfs_id":"LPP:dc6b96b1-d0fa-4d03-ac2b-8eba5bb97ba2"},{"latitude":46.0627306480412,"longitude":14.524754324801435,"name":"Savsko naselje","ref_id":"202042","route_groups_on_station":["2"],"gtfs_id":"LPP:bd1a0fbd-1593-4552-a76f-681c59333d6b"},{"latitude":46.062639620654735,"longitude":14.525022074090455,"name":"Središka","ref_id":"202091","route_groups_on_station":["2","7","12","22","27"],"gtfs_id":"LPP:f07c916c-6fc6-4acf-a334-0ab0d3c4f57f"},{"latitude":46.048021660613614,"longitude":14.537373749385686,"name":"Štepanja vas","ref_id":"403041","route_groups_on_station":["13"],"gtfs_id":"LPP:2e6c059c-0305-47bb-9ca8-00a2123039e9"},{"latitude":46.02655857600485,"longitude":14.527630399125655,"name":"Jurčkova","ref_id":"504041","route_groups_on_station":["27"],"gtfs_id":"LPP:a52cd7ac-c11e-4c8b-94a5-1a12b32595da"},{"latitude":46.05553530663181,"longitude":14.533977552280607,"name":"Tržnica Moste","ref_id":"303012","route_groups_on_station":["2","9","11","20","25"],"gtfs_id":"LPP:60ccc570-3714-410b-aa31-43d3a4c593c8"},{"latitude":46.020018915585375,"longitude":14.510540636397806,"name":"Iški most","ref_id":"604011","route_groups_on_station":["19"],"gtfs_id":"LPP:33613e0e-f41c-4cee-804a-3942bf698e3e"},{"latitude":46.066616489834175,"longitude":14.490035203256255,"name":"Na jami","ref_id":"802031","route_groups_on_station":["7"],"gtfs_id":"LPP:bd001f58-6e58-49e9-877f-1fa36964fbc2"},{"latitude":46.01991424993348,"longitude":14.510346570219813,"name":"Iški most","ref_id":"604012","route_groups_on_station":["19"],"gtfs_id":"LPP:1ceecd12-b005-4828-ad39-8f2aeb1ca228"},{"latitude":46.06707137310089,"longitude":14.514739106986502,"name":"Topniška","ref_id":"102022","route_groups_on_station":["19"],"gtfs_id":"LPP:9276fcfb-0f7e-4df3-b827-325600851526"},{"latitude":46.06662121963626,"longitude":14.48970957918712,"name":"Na jami","ref_id":"802032","route_groups_on_station":["7"],"gtfs_id":"LPP:938c9405-72bb-4acd-bace-a75abcf2f9cb"},{"latitude":46.067154622254776,"longitude":14.515007745947418,"name":"Topniška","ref_id":"102021","route_groups_on_station":["19"],"gtfs_id":"LPP:5d1e404b-1606-457e-8d2b-4e3e80139532"},{"latitude":46.02992947058968,"longitude":14.53261094399145,"name":"Peruzzijeva","ref_id":"503041","route_groups_on_station":["3"],"gtfs_id":"LPP:5dcffe2a-1c73-4f7c-bdac-4084bb5201aa"},{"latitude":46.062982232963336,"longitude":14.525992128110037,"name":"Središka","ref_id":"202092","route_groups_on_station":["2","7","12","22","24","27"],"gtfs_id":"LPP:c0a064eb-b507-43c2-a6d2-0e9c5881f031"},{"latitude":46.05582129835412,"longitude":14.53453299062092,"name":"Tržnica Moste","ref_id":"303011","route_groups_on_station":["2","9","11","20","25"],"gtfs_id":"LPP:7a52a73a-cc0e-4c61-b9bc-306157727e1c"},{"latitude":46.04842769268831,"longitude":14.53853092793921,"name":"Štepanja vas","ref_id":"403043","route_groups_on_station":["5","9","24"],"gtfs_id":"LPP:81f21fc1-3bd2-4d2a-b563-2d063479c68e"},{"latitude":46.04794296332875,"longitude":14.53908098979979,"name":"Štepanja vas","ref_id":"403042","route_groups_on_station":["5","9","13","24"],"gtfs_id":"LPP:8598b85d-3e1d-4767-b72f-0c209038841f"},{"latitude":46.02587920414095,"longitude":14.528792850163494,"name":"Jurčkova","ref_id":"504042","route_groups_on_station":["27"],"gtfs_id":"LPP:e333d90d-3eef-4d82-9e00-ebe693e2f389"},{"latitude":46.069250219790234,"longitude":14.503558321621938,"name":"Podmilščakova","ref_id":"102052","route_groups_on_station":["14"],"gtfs_id":"LPP:cdbafa76-fd1b-45e0-bbd6-d6c1c6a141f9"},{"latitude":46.06577062655823,"longitude":14.521659883003316,"name":"Savske stolpnice","ref_id":"202031","route_groups_on_station":["7","19","22","24"],"gtfs_id":"LPP:609f0950-bb8c-4eaf-a931-8575b8aff1ac"},{"latitude":46.0300681866742,"longitude":14.472398360690704,"name":"MESTNI LOG","ref_id":"604031","route_groups_on_station":["1"],"gtfs_id":"LPP:8dde1a7b-e3ec-4675-8409-2a2c4ae696c7"},{"latitude":46.0306883051519,"longitude":14.471709441676078,"name":"Mestni log","ref_id":"604032","route_groups_on_station":["1"],"gtfs_id":"LPP:21a5f1e3-8ac0-4023-95ca-0a3ff54099aa"},{"latitude":46.03729915487585,"longitude":14.467279308861954,"name":"Dolgi most","ref_id":"703111","route_groups_on_station":["6","16","45","46","47","48","49","51","54","56"],"gtfs_id":"LPP:b4b30b45-445a-4f70-bdf5-5ea7cdc98583"},{"latitude":46.06981305536522,"longitude":14.503500198954502,"name":"Podmilščakova","ref_id":"102051","route_groups_on_station":["14"],"gtfs_id":"LPP:aa31554f-8623-42db-aedd-ad9a8f562e4c"},{"latitude":46.06934803362496,"longitude":14.510169057515183,"name":"Stadion","ref_id":"102041","route_groups_on_station":["6","8","11"],"gtfs_id":"LPP:daf172e0-4dd9-4d5b-8287-67ad2034bced"},{"latitude":46.068150547632754,"longitude":14.516545860781678,"name":"Gasilska brigada","ref_id":"102032","route_groups_on_station":["13","20"],"gtfs_id":"LPP:d72d58c2-b9a9-4dd5-b741-17e986d925c8"},{"latitude":46.06942957686448,"longitude":14.510454737754007,"name":"Stadion","ref_id":"102042","route_groups_on_station":["6","8","11"],"gtfs_id":"LPP:154f3596-bbbb-4038-9ad7-c4b8b5288a02"},{"latitude":46.06592580736283,"longitude":14.523151688978432,"name":"Savske stolpnice","ref_id":"202032","route_groups_on_station":["7","19"],"gtfs_id":"LPP:2f874852-bc80-4ff3-b6bf-a914e31251c8"},{"latitude":46.0514727843489,"longitude":14.539074760498583,"name":"Kodeljevo","ref_id":"403022","route_groups_on_station":["5","9","24"],"gtfs_id":"LPP:eb165f50-9c43-4b09-9658-469a16d3dc83"},{"latitude":46.052146004835876,"longitude":14.539113936280524,"name":"Kodeljevo","ref_id":"403021","route_groups_on_station":["9","24"],"gtfs_id":"LPP:452bfd80-e8bd-470b-bc4a-981e1b37ffd7"},{"latitude":46.06850686378388,"longitude":14.516694733292564,"name":"Gasilska brigada","ref_id":"102031","route_groups_on_station":["13","20"],"gtfs_id":"LPP:521edd75-c364-480a-af9e-a1c9815b6dd7"},{"latitude":46.05156624945788,"longitude":14.539460936381396,"name":"Kodeljevo","ref_id":"403023","route_groups_on_station":["5"],"gtfs_id":"LPP:55f1ae46-11e5-4270-991f-f09dae6c58bf"},{"latitude":46.06744082317037,"longitude":14.485904638958072,"name":"Bolnica P. Držaja","ref_id":"802041","route_groups_on_station":["7"],"gtfs_id":"LPP:5b184752-5bd2-43e3-9243-dfc8969d9065"},{"latitude":46.06356733604986,"longitude":14.529311306024777,"name":"ZELENA JAMA","ref_id":"202051","route_groups_on_station":["2"]},{"latitude":46.06922357792497,"longitude":14.490256370879077,"name":"Kino Šiška","ref_id":"802022","route_groups_on_station":["1","3","5","8","22","25","60"],"gtfs_id":"LPP:9cfac7e2-9653-4e52-a6d3-27756d27f817"},{"latitude":46.04729758992993,"longitude":14.464708790530132,"name":"Podmornica","ref_id":"703051","route_groups_on_station":["14"],"gtfs_id":"LPP:9c17244c-0812-404b-b929-5cdc0591e421"},{"latitude":46.06788235117046,"longitude":14.4854811782943,"name":"Bolnica P. Držaja","ref_id":"802042","route_groups_on_station":["7"],"gtfs_id":"LPP:a1406782-3114-407c-8e35-35bcf5a1234b"},{"latitude":46.04739599864405,"longitude":14.464308457732542,"name":"Podmornica","ref_id":"703052","route_groups_on_station":["14"],"gtfs_id":"LPP:28248670-5e08-4de2-8eab-e63933c0d61d"},{"latitude":46.03678135170651,"longitude":14.465192140963854,"name":"Dolgi most","ref_id":"703112","route_groups_on_station":["6","16","45","46","47","48","51","54","56"],"gtfs_id":"LPP:da656f17-9723-4cbe-a008-823cbad17c28"},{"latitude":46.06454972375176,"longitude":14.529110050210523,"name":"Flajšmanova","ref_id":"202082","route_groups_on_station":["2","7","12","22","24","27"],"gtfs_id":"LPP:a0b1fb90-3f6a-4231-910a-18be192ac762"},{"latitude":46.069672634930896,"longitude":14.489462757378902,"name":"Kino Šiška","ref_id":"802021","route_groups_on_station":["1","3","5","8","22","25","60"],"gtfs_id":"LPP:9afb36ea-c2ae-4bbb-9644-3a6c65bb1c7d"},{"latitude":46.05403353847386,"longitude":14.539985176673232,"name":"Ob sotočju","ref_id":"303032","route_groups_on_station":["9","24"],"gtfs_id":"LPP:47a3bd8a-72ae-4e20-b43f-10bfaf49012c"},{"latitude":46.04166470665443,"longitude":14.46360272582221,"name":"I. Kobilca","ref_id":"703211","route_groups_on_station":["14"],"gtfs_id":"LPP:b5273abc-dfeb-49a2-9607-249bf6415e4b"},{"latitude":46.028002380283596,"longitude":14.535614068528599,"name":"Gornji Rudnik","ref_id":"504012","route_groups_on_station":["3"],"gtfs_id":"LPP:6a74977a-a26d-42b4-a60b-8dabc726e57d"},{"latitude":46.02810821503795,"longitude":14.535834768836576,"name":"Gornji Rudnik","ref_id":"504011","route_groups_on_station":["3"],"gtfs_id":"LPP:f528b363-1484-456c-835b-1e08dc31ef8e"},{"latitude":46.04136945070971,"longitude":14.463233808477874,"name":"I. Kobilca","ref_id":"703212","route_groups_on_station":["14"],"gtfs_id":"LPP:edc8bf1d-d4f1-4c5b-8112-e4fa71a02bae"},{"latitude":46.02436395160206,"longitude":14.531842042487856,"name":"Bobrova","ref_id":"504122","route_groups_on_station":["27"],"gtfs_id":"LPP:cd5497dc-20a4-40b3-9adf-b380de5d9f16"},{"latitude":46.06349069748781,"longitude":14.531979803803535,"name":"Rožičeva","ref_id":"203021","route_groups_on_station":["2"],"gtfs_id":"LPP:e97befb6-5dc6-4603-ad5e-3aa96b4b2221"},{"latitude":46.06543819044026,"longitude":14.529160889938133,"name":"Pokopališka","ref_id":"203012","route_groups_on_station":["2","7","24"],"gtfs_id":"LPP:be1881c9-d79f-453e-a2ee-260a8bf3fe13"},{"latitude":46.06341287923119,"longitude":14.532358946095755,"name":"Rožičeva","ref_id":"203022","route_groups_on_station":["2"],"gtfs_id":"LPP:7ea32e84-b8d9-498b-9f03-5a66990012b9"},{"latitude":46.036952090755946,"longitude":14.463680046008538,"name":"D. MOST P+R","ref_id":"704011","route_groups_on_station":["1","6"],"gtfs_id":"LPP:769b7bc7-4f95-4bb2-9c99-37ba8e8b4bd5"},{"latitude":46.05607475610472,"longitude":14.539837608968991,"name":"Zaloška","ref_id":"303021","route_groups_on_station":["2","9","11","20","25"],"gtfs_id":"LPP:7fa32ea0-e884-435a-a81c-51bbd5cedf3e"},{"latitude":46.06547919959305,"longitude":14.529408012844387,"name":"Pokopališka","ref_id":"203011","route_groups_on_station":["2"],"gtfs_id":"LPP:1fe82a05-5f6a-4076-9e19-23d61b835572"},{"latitude":46.02408037822856,"longitude":14.532358741831853,"name":"Bobrova","ref_id":"504121","route_groups_on_station":["27"],"gtfs_id":"LPP:60d91c8b-d5a9-4ef4-927c-e241bc31f81a"},{"latitude":46.044768456700865,"longitude":14.462249768999243,"name":"Ježkova","ref_id":"703202","route_groups_on_station":["14"],"gtfs_id":"LPP:3d2f3af0-3b48-4019-a861-ee4fff761a24"},{"latitude":46.046032328278756,"longitude":14.543988438845089,"name":"Bilečanska","ref_id":"403071","route_groups_on_station":["24"],"gtfs_id":"LPP:70c51140-f3ee-4c89-a6e2-ed74dab89148"},{"latitude":46.0453132636658,"longitude":14.462172024450933,"name":"Ježkova","ref_id":"703201","route_groups_on_station":["14"],"gtfs_id":"LPP:46f20d33-601c-4ef6-b86c-7c2bb4af52fa"},{"latitude":46.016033185833535,"longitude":14.511757196750512,"name":"Barje","ref_id":"604023","route_groups_on_station":["19"],"gtfs_id":"LPP:47637057-8d6a-4cf9-bd56-3ac90748fcc4"},{"latitude":46.066879036371525,"longitude":14.527576264894677,"name":"Žale","ref_id":"202062","route_groups_on_station":["2","7","24"],"gtfs_id":"LPP:454817d3-3750-49c7-994c-14d06fd2c634"},{"latitude":46.066996563711,"longitude":14.527413355764159,"name":"Žale","ref_id":"202061","route_groups_on_station":["2"]},{"latitude":46.045770584256154,"longitude":14.544234572607893,"name":"Bilečanska","ref_id":"403072","route_groups_on_station":["24"],"gtfs_id":"LPP:eb669f04-cfb6-4ea4-90c9-26eb551ecb45"},{"latitude":46.047159171279375,"longitude":14.461755542098336,"name":"Pot Rdečega križa","ref_id":"703191","route_groups_on_station":["14"],"gtfs_id":"LPP:0a4b6359-22f0-4caa-b4a8-f4edb97a0825"},{"latitude":46.0155650335018,"longitude":14.511672480842407,"name":"Barje","ref_id":"604022","route_groups_on_station":["19"]},{"latitude":46.056480792297926,"longitude":14.540823646325386,"name":"Kajuhova","ref_id":"303022","route_groups_on_station":["2","22","24"],"gtfs_id":"LPP:88cdd36c-03d2-4374-a22f-110dd9f75ea0"},{"latitude":46.047770262649145,"longitude":14.544742413168477,"name":"Emona","ref_id":"403051","route_groups_on_station":["5","9","13"],"gtfs_id":"LPP:ef31a8be-b01d-44cd-95cf-3db8e918af26"},{"latitude":46.03228478966416,"longitude":14.464581602584984,"name":"Cesta v Gorice","ref_id":"704151","route_groups_on_station":["1","16"],"gtfs_id":"LPP:216a26dc-11c2-432b-b099-0d55d508b7fa"},{"latitude":46.0468941710363,"longitude":14.461292462604273,"name":"Pot Rdečega križa","ref_id":"703192","route_groups_on_station":["14"],"gtfs_id":"LPP:97627b9b-fa2e-461a-97ea-a15df7599598"},{"latitude":46.07278131778543,"longitude":14.495826643069645,"name":"Tiki","ref_id":"802062","route_groups_on_station":["18"],"gtfs_id":"LPP:5606dcbf-b08f-47cf-8147-203cc7f303de"},{"latitude":46.047598508830816,"longitude":14.545067372638025,"name":"Emona","ref_id":"403052","route_groups_on_station":["5","9","13"],"gtfs_id":"LPP:36d25599-0bed-48a0-bcb4-134be8a959fe"},{"latitude":46.03234263511777,"longitude":14.46422387185648,"name":"Cesta v Gorice","ref_id":"704152","route_groups_on_station":["1","16"],"gtfs_id":"LPP:717c914e-f928-4671-95f6-26c1ddb95799"},{"latitude":46.035642808916805,"longitude":14.462325378409975,"name":"Podvozna pot","ref_id":"704181","route_groups_on_station":["6","16"],"gtfs_id":"LPP:5de84f88-3f32-4636-8c30-03cc267ecf37"},{"latitude":46.07293166899967,"longitude":14.495129225060635,"name":"Tiki","ref_id":"802061","route_groups_on_station":["18"],"gtfs_id":"LPP:eae5b514-2e51-4247-a427-e220249f3ccf"},{"latitude":46.0558576919422,"longitude":14.542429571011176,"name":"Zaloška","ref_id":"303024","route_groups_on_station":["11","20","22","25"],"gtfs_id":"LPP:7bcbdcaa-00b9-47d4-8982-09da26cd7bcb"},{"latitude":46.07362286865303,"longitude":14.499305682404717,"name":"Mostovna","ref_id":"102061","route_groups_on_station":["18"],"gtfs_id":"LPP:91104c6d-6e35-40f2-a182-a082e5e83c10"},{"latitude":46.06922197885551,"longitude":14.525890467566754,"name":"Kranjčeva","ref_id":"203211","route_groups_on_station":["19","24"],"gtfs_id":"LPP:e786b2df-34ed-4246-832e-7c3d538ac1f4"},{"latitude":46.071895312477054,"longitude":14.519063188378402,"name":"Kardeljeva ploščad","ref_id":"102091","route_groups_on_station":["13","20"],"gtfs_id":"LPP:1e157c31-d34d-4c2e-91b4-8c000c88f6dd"},{"latitude":46.041713209634146,"longitude":14.459835431960759,"name":"Cesta na Vrhovce","ref_id":"703222","route_groups_on_station":["14"],"gtfs_id":"LPP:bb1ac8b9-5cb2-49f2-8d5c-d7fe4afdd5dd"},{"latitude":46.06033566723379,"longitude":14.539636368260162,"name":"Tovorni kolodvor","ref_id":"203062","route_groups_on_station":["2","22","24"],"gtfs_id":"LPP:223f660b-c391-4120-bf3c-7bf06781686b"},{"latitude":46.0679765444074,"longitude":14.476771118097696,"name":"Draga","ref_id":"803222","route_groups_on_station":["18"],"gtfs_id":"LPP:e3321752-4498-4da3-801c-d54920b22eba"},{"latitude":46.041718726443264,"longitude":14.459641552063847,"name":"Cesta na Vrhovce","ref_id":"703221","route_groups_on_station":["14"],"gtfs_id":"LPP:d9df365b-7e54-4d22-b2e9-3b548d48ad59"},{"latitude":46.06800610205603,"longitude":14.4765727945721,"name":"Draga","ref_id":"803221","route_groups_on_station":["18"],"gtfs_id":"LPP:099976aa-17cc-45d3-add4-267985ab1533"},{"latitude":46.06404992309158,"longitude":14.53596021160106,"name":"Kavčičeva","ref_id":"203051","route_groups_on_station":["2"],"gtfs_id":"LPP:cdee8be6-e02c-4fb5-9752-be1bac08d90d"},{"latitude":46.07423734808117,"longitude":14.499622425512332,"name":"Mostovna","ref_id":"102062","route_groups_on_station":["18"],"gtfs_id":"LPP:2073b288-02c2-4d7e-acf1-1a8d59fb2884"},{"latitude":46.03274674564996,"longitude":14.462316188067422,"name":"Zgornji log","ref_id":"704142","route_groups_on_station":["1","16"],"gtfs_id":"LPP:47283e27-c588-411c-9303-30a6f0beeaef"},{"latitude":46.03551035311733,"longitude":14.460900025751602,"name":"Podvozna pot","ref_id":"704182","route_groups_on_station":["6"],"gtfs_id":"LPP:0c3a77a7-d9eb-45c7-b722-1fafde29129c"},{"latitude":46.03278653338745,"longitude":14.462170540011556,"name":"Zgornji log","ref_id":"704141","route_groups_on_station":["1","16"],"gtfs_id":"LPP:6c56976b-4ae1-429f-bcab-0cfc37e3580d"},{"latitude":46.06163876773636,"longitude":14.538948718518533,"name":"Tovorni kolodvor","ref_id":"203061","route_groups_on_station":["2","22"],"gtfs_id":"LPP:2bf898b0-1247-4e84-87e2-2e044e580c8f"},{"latitude":46.06925963310999,"longitude":14.527693502669933,"name":"Tomačevska","ref_id":"203032","route_groups_on_station":["19"],"gtfs_id":"LPP:91b76764-87af-4b90-89dd-60f0046f7cc0"},{"latitude":46.070111640313335,"longitude":14.480242116388984,"name":"Zgornja Šiška","ref_id":"803091","route_groups_on_station":["7"],"gtfs_id":"LPP:37fc313d-1f45-49c9-9059-4f96f44a6682"},{"latitude":46.06401789680791,"longitude":14.536491637730393,"name":"Kavčičeva","ref_id":"203052","route_groups_on_station":["2"],"gtfs_id":"LPP:813b7c8c-5236-405a-bb0d-092a5d93c2a6"},{"latitude":46.069483405598085,"longitude":14.527669318490883,"name":"Tomačevska","ref_id":"203031","route_groups_on_station":["19"],"gtfs_id":"LPP:9845a6f7-ba79-4f3d-b6ae-969651ef6001"},{"latitude":46.02722515534071,"longitude":14.465926806568582,"name":"Log","ref_id":"603251","route_groups_on_station":["16"],"gtfs_id":"LPP:ef005e77-f3b8-4171-b681-1294d0e4732b"},{"latitude":46.02740997996494,"longitude":14.465740480973018,"name":"Log","ref_id":"603252","route_groups_on_station":["16"],"gtfs_id":"LPP:66eec6a2-dfde-4d98-b690-e47f200367fd"},{"latitude":46.07417596326369,"longitude":14.511215830673782,"name":"Mercator","ref_id":"102081","route_groups_on_station":["6","8","11"],"gtfs_id":"LPP:f8da5156-e545-47ed-a811-2242f41f5593"},{"latitude":46.06668732686626,"longitude":14.532967849984487,"name":"Šola Jarše","ref_id":"203041","route_groups_on_station":["2","7","12","22","24","27"],"gtfs_id":"LPP:a0e0a21b-b8ce-4d76-bbc2-04e179367fee"},{"latitude":46.0746893249697,"longitude":14.504490543883588,"name":"Vodovodna","ref_id":"102071","route_groups_on_station":["14"],"gtfs_id":"LPP:94712446-2421-4304-b4f1-3b3f82998713"},{"latitude":46.072613592990656,"longitude":14.519329603274315,"name":"Kardeljeva ploščad","ref_id":"102092","route_groups_on_station":["13","20"],"gtfs_id":"LPP:03375155-45fb-4565-b392-2349fcb199ea"},{"latitude":46.065030422859465,"longitude":14.535752717908869,"name":"Šola Jarše","ref_id":"203044","route_groups_on_station":["22"],"gtfs_id":"LPP:ff8f71b7-06fe-47fe-8238-9af5ee1b1dfd"},{"latitude":46.070722184703186,"longitude":14.525866020282866,"name":"Kranjčeva","ref_id":"203212","route_groups_on_station":["24"],"gtfs_id":"LPP:59ee5f7d-476b-4958-a922-2040a9308f3b"},{"latitude":46.07458275447716,"longitude":14.511622052601224,"name":"Mercator","ref_id":"102082","route_groups_on_station":["6","8","11"],"gtfs_id":"LPP:0760a037-cd94-4936-89b6-45ce9bd19917"},{"latitude":46.04930003782995,"longitude":14.54777465457724,"name":"Nusdorferjeva","ref_id":"303081","route_groups_on_station":["5","9"],"gtfs_id":"LPP:c124f317-217b-4b89-9597-393843de4f81"},{"latitude":46.07125359526684,"longitude":14.480690654409315,"name":"Kneza Koclja","ref_id":"803081","route_groups_on_station":["5","18","22"],"gtfs_id":"LPP:4038e02e-f22f-4af0-ba4f-7aab855b53af"},{"latitude":46.07538939954873,"longitude":14.505082095563719,"name":"Vodovodna","ref_id":"102072","route_groups_on_station":["14","18"],"gtfs_id":"LPP:f15ddf31-fc11-41ba-988d-376c83e38f58"},{"latitude":46.07319708065566,"longitude":14.486220460529562,"name":"Slovenija avto","ref_id":"803011","route_groups_on_station":["1","3","5","8","22","25","60"],"gtfs_id":"LPP:484b5c91-1220-43ba-af79-84e712fcc46b"},{"latitude":46.04955144419521,"longitude":14.547837574281827,"name":"Nusdorferjeva","ref_id":"303082","route_groups_on_station":["5","9"],"gtfs_id":"LPP:17f7d178-41b3-41f9-a545-cbfc22a0a5f1"},{"latitude":46.01247058266134,"longitude":14.5075241169355,"name":"Plečnikova cerkev","ref_id":"614011","route_groups_on_station":["19"],"gtfs_id":"LPP:53c3c8c9-2e64-4a8f-9afb-031b24c17d5a"},{"latitude":46.07149005205264,"longitude":14.48067232926082,"name":"Kneza Koclja","ref_id":"803082","route_groups_on_station":["5","18","22"],"gtfs_id":"LPP:f2bac6f5-5bbc-4f15-acdd-014d86770ce9"},{"latitude":46.01221095734941,"longitude":14.506647618499958,"name":"Plečnikova cerkev","ref_id":"614012","route_groups_on_station":["19"],"gtfs_id":"LPP:05bd4cbd-b014-4cfd-8ca9-3c82b0a59114"},{"latitude":46.075719185707676,"longitude":14.499966347026557,"name":"Toplarna","ref_id":"103011","route_groups_on_station":["18"],"gtfs_id":"LPP:39da4d26-2c37-40d9-ad9b-e8ccc0882d38"},{"latitude":46.067259783489675,"longitude":14.534704747717445,"name":"Šola Jarše","ref_id":"203042","route_groups_on_station":["2","7","12","24","27"],"gtfs_id":"LPP:6a89c110-a0f8-4b1a-87f0-33f49c0a658e"},{"latitude":46.07391176821104,"longitude":14.486595534450306,"name":"Slovenija avto","ref_id":"803012","route_groups_on_station":["3","8","18"],"gtfs_id":"LPP:dfde6478-02b5-471b-a470-29cb0e84542f"},{"latitude":46.07111691412364,"longitude":14.478365146398932,"name":"Zgornja Šiška","ref_id":"803092","route_groups_on_station":["7"],"gtfs_id":"LPP:fcec9e7a-1c9e-4214-96dd-d071550349e6"},{"latitude":46.020246380841705,"longitude":14.53481150187635,"name":"NS Rudnik","ref_id":"504052","route_groups_on_station":["27"],"gtfs_id":"LPP:c93954aa-7aad-4fca-9f7a-721d37f0474e"},{"latitude":46.07373991303999,"longitude":14.485093921007943,"name":"Šišenska","ref_id":"803016","route_groups_on_station":["5","18","22"],"gtfs_id":"LPP:77dcd833-fa4d-4c5a-93b1-31284942e61d"},{"latitude":46.02025500840928,"longitude":14.535108416892227,"name":"NS Rudnik","ref_id":"504051","route_groups_on_station":["27"],"gtfs_id":"LPP:7ad25867-5c97-4f9f-9b1b-4966436f7fbf"},{"latitude":46.07632324647639,"longitude":14.500287789024767,"name":"Toplarna","ref_id":"103012","route_groups_on_station":["18"],"gtfs_id":"LPP:a106730b-3562-40a7-874f-8334a6c4efb6"},{"latitude":46.02383857200864,"longitude":14.540037881418083,"name":"Spodnji Rudnik","ref_id":"504021","route_groups_on_station":["3","68","69","76","78","82"],"gtfs_id":"LPP:87785aa3-128e-4f15-82b0-d8c3cfa6076f"},{"latitude":46.053835216185185,"longitude":14.547819367238972,"name":"ŠTEPANJSKO NAS.","ref_id":"303041","route_groups_on_station":["5"],"gtfs_id":"LPP:505865ea-cdea-4042-bdb2-b2f4f03889cb"},{"latitude":46.07420732673931,"longitude":14.485510885998004,"name":"Remiza","ref_id":"803014","route_groups_on_station":["1","25","60"],"gtfs_id":"LPP:1c0ae078-cca7-40c8-aeda-1187a12ddfee"},{"latitude":46.05350691802458,"longitude":14.548228174641642,"name":"ŠTEPANJSKO NAS.","ref_id":"303043","route_groups_on_station":["9"],"gtfs_id":"LPP:bf64b499-211b-4da8-ace2-f12a17608ae3"},{"latitude":46.0767543116052,"longitude":14.50550581891603,"name":"Brinje","ref_id":"103021","route_groups_on_station":["14","18"],"gtfs_id":"LPP:d7384760-d854-492d-87af-f342cab37fc1"},{"latitude":46.0696429716875,"longitude":14.473516242931272,"name":"Bratov Učakar","ref_id":"803132","route_groups_on_station":["5","22"],"gtfs_id":"LPP:b589ddd3-5a31-4fe1-915f-44347b4c0a1a"},{"latitude":46.04410028913705,"longitude":14.455626906987384,"name":"Vrhovci","ref_id":"704032","route_groups_on_station":["14"],"gtfs_id":"LPP:dac8d2a7-89e4-4aec-948d-00db4833ce7c"},{"latitude":46.06969103755405,"longitude":14.473122418113464,"name":"Bratov Učakar","ref_id":"803131","route_groups_on_station":["5","22"],"gtfs_id":"LPP:4f21a18a-3cb0-4c6c-bb92-e7c8945fac1c"},{"latitude":46.04403276798671,"longitude":14.455329344107101,"name":"Vrhovci","ref_id":"704031","route_groups_on_station":["14"],"gtfs_id":"LPP:8677848c-55dd-4af4-b275-3074a3ff4846"},{"latitude":46.02293446187511,"longitude":14.540343188201916,"name":"Spodnji Rudnik","ref_id":"504022","route_groups_on_station":["3","68","69","76","78","82"],"gtfs_id":"LPP:0df2ffa6-b1c8-44d0-900c-8b23b37794df"},{"latitude":46.07167395145397,"longitude":14.529620147321841,"name":"Na Žalah","ref_id":"203232","route_groups_on_station":["19"],"gtfs_id":"LPP:2628b04b-eaf2-4c5a-b7ac-837237162783"},{"latitude":46.0762925283214,"longitude":14.515506600774962,"name":"Baragova","ref_id":"103211","route_groups_on_station":["18"],"gtfs_id":"LPP:4682c5fd-08cb-4af1-a3e2-6f1ee880a52d"},{"latitude":46.07604785376694,"longitude":14.517006858306754,"name":"Baragova","ref_id":"103212","route_groups_on_station":["18"],"gtfs_id":"LPP:eec159d0-4b1b-4706-9a5d-a00ddcbea9f5"},{"latitude":46.07208624169931,"longitude":14.529727825936867,"name":"Na Žalah","ref_id":"203231","route_groups_on_station":["19"],"gtfs_id":"LPP:d3a06374-ab12-456b-9c00-55461af341fa"},{"latitude":46.04697992951527,"longitude":14.551456956572984,"name":"Rast","ref_id":"403061","route_groups_on_station":["13"],"gtfs_id":"LPP:930fed8f-1d4d-40c6-9a3b-53697263a0f2"},{"latitude":46.068441176171135,"longitude":14.536694067327979,"name":"Jarše","ref_id":"203091","route_groups_on_station":["2","7","12","24","27"],"gtfs_id":"LPP:7ad774b6-172a-401b-b186-358aa2d560a2"},{"latitude":46.0467942160046,"longitude":14.551751469871746,"name":"Rast","ref_id":"403062","route_groups_on_station":["13"],"gtfs_id":"LPP:100da88e-4c5f-4188-bd11-d4f3fc80fb74"},{"latitude":46.01004190440209,"longitude":14.501586572375906,"name":"Brglezov štradon","ref_id":"614021","route_groups_on_station":["19"],"gtfs_id":"LPP:46847a61-d68a-4d2c-ad76-18e043d41430"},{"latitude":46.01835161509226,"longitude":14.535335199386521,"name":"NS RUDNIK","ref_id":"504061","route_groups_on_station":["27"],"gtfs_id":"LPP:8fc42c89-96e2-4c69-a2b4-44d505f27ce9"},{"latitude":46.07557134181195,"longitude":14.520940739441976,"name":"Božičeva","ref_id":"103192","route_groups_on_station":["13","18"],"gtfs_id":"LPP:d98335a0-1291-4d4c-be62-16b11c356575"},{"latitude":46.07736360665761,"longitude":14.512249341355954,"name":"AMZS","ref_id":"103032","route_groups_on_station":["6","8","11","18"],"gtfs_id":"LPP:cee2862b-9b70-4880-8fa3-16c6d2efae1b"},{"latitude":46.07455659303572,"longitude":14.524524508399379,"name":"Štajerska","ref_id":"103181","route_groups_on_station":["24"],"gtfs_id":"LPP:4abe5e63-5707-4ef0-acda-ab2c52749afe"},{"latitude":46.06177302815847,"longitude":14.544939333463509,"name":"BTC-Emporium","ref_id":"203142","route_groups_on_station":["24","27"],"gtfs_id":"LPP:abc9fd26-5442-468b-93b6-4d5eb76d0f1f"},{"latitude":46.07572326865177,"longitude":14.520836812905955,"name":"Božičeva","ref_id":"103191","route_groups_on_station":["13","18"],"gtfs_id":"LPP:783196f2-97cd-4265-bb9a-b13aa8bb6a0b"},{"latitude":46.07797150056564,"longitude":14.50626734741082,"name":"Brinje","ref_id":"103022","route_groups_on_station":["14","18"],"gtfs_id":"LPP:befe0e87-b5fe-41ff-9a77-f65461eff28d"},{"latitude":46.062088961210804,"longitude":14.544990651021507,"name":"BTC-Emporium","ref_id":"203141","route_groups_on_station":["24","27"],"gtfs_id":"LPP:5cc8a08d-c0af-491f-9a9c-b8b4f5f23bc0"},{"latitude":46.0767597782595,"longitude":14.488915875840256,"name":"Litostrojska","ref_id":"803052","route_groups_on_station":["3","8","18"],"gtfs_id":"LPP:9a480b5e-0283-4130-a5e2-9d5e996caa4f"},{"latitude":46.07765683291845,"longitude":14.512012675069688,"name":"AMZS","ref_id":"103031","route_groups_on_station":["6","8","11","18"],"gtfs_id":"LPP:c0e6a237-3879-4336-88b6-5af51408cc7e"},{"latitude":46.00957805242022,"longitude":14.500180780635064,"name":"Brglezov štradon","ref_id":"614022","route_groups_on_station":["19"],"gtfs_id":"LPP:34afe7f1-2d09-487f-983f-19c7dd5dae82"},{"latitude":46.04749683415727,"longitude":14.453823263893025,"name":"Brdo","ref_id":"704026","route_groups_on_station":["14"],"gtfs_id":"LPP:e2d3c37e-a7df-458e-9e5a-ea33ccf4c11b"},{"latitude":46.07681205616524,"longitude":14.488618049472198,"name":"Litostrojska","ref_id":"803051","route_groups_on_station":["3","8","18"],"gtfs_id":"LPP:ac3afe7d-a2b3-4d5d-9e6a-1d2412a3bc70"},{"latitude":46.07645481144415,"longitude":14.51948335839058,"name":"Puhova","ref_id":"103041","route_groups_on_station":["20"],"gtfs_id":"LPP:7b822496-7ea4-4ce8-b78c-1d021c68a9ed"},{"latitude":46.04748829852003,"longitude":14.453619655357436,"name":"Brdo","ref_id":"704023","route_groups_on_station":["14"],"gtfs_id":"LPP:f088dbda-3ab0-43c5-bcdf-c727725c05be"},{"latitude":46.056242803002164,"longitude":14.549651336283368,"name":"Pot na Fužine","ref_id":"303051","route_groups_on_station":["11","20","22","25"],"gtfs_id":"LPP:379bc761-04b5-4227-be76-3b870fe3e69f"},{"latitude":46.06413797657289,"longitude":14.543550840915834,"name":"BTC-tržnica","ref_id":"203122","route_groups_on_station":["27"],"gtfs_id":"LPP:bbe542ee-a3f6-43cf-b23a-077c28b7d19a"},{"latitude":46.064261106541174,"longitude":14.543612868241617,"name":"BTC-tržnica","ref_id":"203121","route_groups_on_station":["27"],"gtfs_id":"LPP:d50b2bdb-481b-4e58-ada6-47a028fc6382"},{"latitude":46.0786088409031,"longitude":14.497428220072008,"name":"I.C. Šiška","ref_id":"103232","route_groups_on_station":["18"],"gtfs_id":"LPP:05fd1f81-fe2a-419a-8a26-12c13ccd0c34"},{"latitude":46.06872689379598,"longitude":14.538575670175533,"name":"Jarše","ref_id":"203092","route_groups_on_station":["2","7","12","24","27"],"gtfs_id":"LPP:4bd4913f-8597-4ea0-b219-4e9b15dcbb62"},{"latitude":46.077115476365876,"longitude":14.519713768920845,"name":"Puhova","ref_id":"103042","route_groups_on_station":["20"],"gtfs_id":"LPP:441545fb-7a0c-4555-aea8-01cbe6c14ea3"},{"latitude":46.06681991588984,"longitude":14.541901156420522,"name":"Kristalna palača","ref_id":"203112","route_groups_on_station":["27"],"gtfs_id":"LPP:2d6504e9-c938-417e-9b55-32d6514bc744"},{"latitude":46.07775122353005,"longitude":14.488312965972455,"name":"LITOSTROJSKA","ref_id":"803053","route_groups_on_station":["18"],"gtfs_id":"LPP:300f1367-4ba4-4416-90e4-caa8f33e9144"},{"latitude":46.07930178096932,"longitude":14.501104667673847,"name":"Tovarna Lek","ref_id":"103051","route_groups_on_station":["18"],"gtfs_id":"LPP:0c5f69a6-97c7-4053-bc0b-3f09dbf72f46"},{"latitude":46.00859142718816,"longitude":14.498006191928212,"name":"Dornig","ref_id":"614031","route_groups_on_station":["19"],"gtfs_id":"LPP:ba2b16a8-1273-45d2-8758-47b9694df9a6"},{"latitude":46.0560115978184,"longitude":14.551224432884442,"name":"Pot na Fužine","ref_id":"303052","route_groups_on_station":["11"],"gtfs_id":"LPP:807c11ba-4b3a-4e2b-82b5-abf5864fa4bc"},{"latitude":46.06695613439953,"longitude":14.542055664184836,"name":"Kristalna palača","ref_id":"203111","route_groups_on_station":["27"],"gtfs_id":"LPP:15c71406-72b5-4681-8b1a-29eb30eb3f76"},{"latitude":46.07400741931443,"longitude":14.475858598692518,"name":"Tržnica Koseze","ref_id":"803101","route_groups_on_station":["7"],"gtfs_id":"LPP:1632ee87-59dd-4367-bf10-9d13aa688e82"},{"latitude":46.03403746070517,"longitude":14.453875501378324,"name":"Dolgi most Rotar","ref_id":"704051","route_groups_on_station":["6","45","46","47","48","49","51","54","56"],"gtfs_id":"LPP:6c773433-c487-49c5-a783-32c0e276ed7b"},{"latitude":46.079319465592,"longitude":14.498085837058643,"name":"I.C. Šiška","ref_id":"103231","route_groups_on_station":["18"],"gtfs_id":"LPP:ed4e2e40-0e35-418f-bb5d-102f1275e31f"},{"latitude":46.07966080667349,"longitude":14.501429837768725,"name":"Tovarna Lek","ref_id":"103052","route_groups_on_station":["18"],"gtfs_id":"LPP:c15a2be8-fc53-427d-9cc6-a50bb305f68d"},{"latitude":46.076300608352646,"longitude":14.525114150949092,"name":"Štajerska","ref_id":"103182","route_groups_on_station":["13","18","24"],"gtfs_id":"LPP:3c6ebf90-c611-4535-b2b0-22fba3f7649a"},{"latitude":46.0691840999262,"longitude":14.539748459756943,"name":"Kodrova","ref_id":"203101","route_groups_on_station":["2","7","12","24","27"],"gtfs_id":"LPP:f2b27cbd-5207-4281-8f67-6369d0c50a9b"},{"latitude":46.07438475031148,"longitude":14.47581234985529,"name":"Tržnica Koseze","ref_id":"803102","route_groups_on_station":["7"],"gtfs_id":"LPP:61926b26-d777-483f-ae79-86766c48793b"},{"latitude":46.07685492465361,"longitude":14.482357943059274,"name":"Aleja","ref_id":"803021","route_groups_on_station":["1","25"],"gtfs_id":"LPP:11d74c00-da13-4cad-883e-c6dcf8edcbe8"},{"latitude":46.00813898445166,"longitude":14.496644394998995,"name":"Dornig","ref_id":"614032","route_groups_on_station":["19"],"gtfs_id":"LPP:784bebe9-c0c7-46eb-943d-0b1808ffd5ac"},{"latitude":46.0202393826723,"longitude":14.463605553224806,"name":"ČRNI LOG","ref_id":"603261","route_groups_on_station":["16"],"gtfs_id":"LPP:b7b7ac00-59bb-41eb-833d-ad309d24e68a"},{"latitude":46.06352298500416,"longitude":14.54704180072821,"name":"BTC-Merkur","ref_id":"203241","route_groups_on_station":["24"],"gtfs_id":"LPP:0eca6015-5429-4289-a76c-4ec9ef707e67"},{"latitude":46.05440291416905,"longitude":14.553213610571149,"name":"Brodarjev trg","ref_id":"303071","route_groups_on_station":["20","22","25"],"gtfs_id":"LPP:feb89b92-366d-4f50-a509-40c7baba8cf0"},{"latitude":46.05425451578691,"longitude":14.553327869203812,"name":"Brodarjev trg","ref_id":"303072","route_groups_on_station":["20","22","25"],"gtfs_id":"LPP:105e10e7-fbab-4f99-94c9-178c25630b42"},{"latitude":46.07730723785056,"longitude":14.482366064346174,"name":"Aleja","ref_id":"803022","route_groups_on_station":["1","25"],"gtfs_id":"LPP:567980fa-7783-411d-9c67-55b44d753880"},{"latitude":46.074605891129565,"longitude":14.531805145120883,"name":"Nove Žale","ref_id":"203071","route_groups_on_station":["19"],"gtfs_id":"LPP:1b3d51e8-8b5e-4b31-a63e-9d665243c2f1"},{"latitude":46.04129600763775,"longitude":14.55571761176937,"name":"Krožna pot","ref_id":"404102","route_groups_on_station":["24"],"gtfs_id":"LPP:a6b87518-2a7f-4505-898f-245ebe23c909"},{"latitude":46.07452651327705,"longitude":14.532016992912961,"name":"Nove Žale","ref_id":"203072","route_groups_on_station":["19"],"gtfs_id":"IJPP:1167285"},{"latitude":46.069188852808324,"longitude":14.541570544982761,"name":"Kodrova","ref_id":"203102","route_groups_on_station":["2","7","12","24"],"gtfs_id":"LPP:1f9fad8e-d59c-494c-bdd1-1983afacb755"},{"latitude":46.063812390867284,"longitude":14.547685805074263,"name":"BTC-Merkur","ref_id":"203242","route_groups_on_station":["24"],"gtfs_id":"LPP:69f98a9c-d52d-423a-b44e-89b6320a7a88"},{"latitude":46.041224012488975,"longitude":14.55597344502107,"name":"Krožna pot","ref_id":"404101","route_groups_on_station":["24"],"gtfs_id":"LPP:9c57d59a-53f8-4a16-b279-2ab1745ea230"},{"latitude":46.03365161563964,"longitude":14.452145910168529,"name":"Dolgi most Rotar","ref_id":"704052","route_groups_on_station":["6","45","46","47","48","51","54","56"],"gtfs_id":"LPP:12cfc2b3-f8ff-444b-8d5f-15855e45e331"},{"latitude":46.06345838123261,"longitude":14.548297382276019,"name":"BTC-ATLANTIS","ref_id":"203251","route_groups_on_station":["24"],"gtfs_id":"LPP:e4635b94-348c-4c69-be85-1160488e5e43"},{"latitude":46.07915579790067,"longitude":14.519899187614179,"name":"Maroltova","ref_id":"103162","route_groups_on_station":["20"],"gtfs_id":"LPP:bbfc6d44-94da-4cfd-b22a-368a2b11ce20"},{"latitude":46.00760652354785,"longitude":14.51439480951738,"name":"Pri Maranzu","ref_id":"604051","route_groups_on_station":["19"],"gtfs_id":"LPP:44e58cea-6c90-467f-baf2-22ac161daafb"},{"latitude":46.061869485369414,"longitude":14.550272657016784,"name":"Yulon","ref_id":"203192","route_groups_on_station":["7","27"],"gtfs_id":"LPP:4ca7ae7e-380b-45e3-81de-00ffab5bb531"},{"latitude":46.06248637353353,"longitude":14.549801800378152,"name":"Yulon","ref_id":"203191","route_groups_on_station":["7"]},{"latitude":46.08040754346807,"longitude":14.491416507632554,"name":"Kovinarska","ref_id":"803211","route_groups_on_station":["3","18"],"gtfs_id":"LPP:52e5adea-e194-4fc1-809c-1d6421f8f8db"},{"latitude":46.07222040867654,"longitude":14.467560625599965,"name":"Koseze","ref_id":"803142","route_groups_on_station":["5","22"],"gtfs_id":"LPP:5a2def68-fa57-4002-a942-e39bc2a87688"},{"latitude":46.072160118276216,"longitude":14.467331287813263,"name":"Koseze","ref_id":"803141","route_groups_on_station":["5","22"],"gtfs_id":"LPP:093afa81-b65f-4182-bac3-afbc00558a9b"},{"latitude":46.07989007253575,"longitude":14.486788425700588,"name":"Ljubljanske brigade","ref_id":"803061","route_groups_on_station":["8"],"gtfs_id":"LPP:d83ec579-9ab5-4e30-bedd-86613c234abd"},{"latitude":46.07985745169974,"longitude":14.519703948168797,"name":"Maroltova","ref_id":"103161","route_groups_on_station":["20"],"gtfs_id":"LPP:e78f256e-7218-4263-87b9-255bd90c9f49"},{"latitude":46.08087533370335,"longitude":14.492028291045678,"name":"Kovinarska","ref_id":"803212","route_groups_on_station":["3","18"],"gtfs_id":"LPP:8fbf17ab-413b-442c-9c6a-0eb8873a4755"},{"latitude":46.01845216424884,"longitude":14.543305521551257,"name":"Rudnik","ref_id":"504033","route_groups_on_station":["3"],"gtfs_id":"LPP:1907a46a-4559-43ec-8363-03fe35d30725"},{"latitude":46.00678767957266,"longitude":14.514534186910463,"name":"Pri Maranzu","ref_id":"604052","route_groups_on_station":["19"],"gtfs_id":"LPP:845b482b-dba1-4313-a476-e772691689cf"},{"latitude":46.0819137725215,"longitude":14.507373952144524,"name":"Pohorskega bataljona","ref_id":"103062","route_groups_on_station":["14","18"],"gtfs_id":"LPP:bb606ad8-8a10-4034-9862-60cc177d2455"},{"latitude":46.0562640987001,"longitude":14.5552817191351,"name":"Archinetova","ref_id":"303061","route_groups_on_station":["11"],"gtfs_id":"LPP:d119c3e9-7f2c-4d40-97a4-ccc6b4bb2951"},{"latitude":46.01752326778641,"longitude":14.543324533707839,"name":"Rudnik","ref_id":"504032","route_groups_on_station":["3"],"gtfs_id":"LPP:c1606675-dd38-4952-914b-6ca64fd56b7b"},{"latitude":46.01799272847576,"longitude":14.544023451560632,"name":"RUDNIK","ref_id":"504031","route_groups_on_station":["3"],"gtfs_id":"LPP:5764ff17-c787-4918-b7bd-a2ed9c6d7dd1"},{"latitude":46.08224055570051,"longitude":14.507272972279083,"name":"Pohorskega bataljona","ref_id":"103061","route_groups_on_station":["14","18"],"gtfs_id":"LPP:824255dc-9be8-4f7b-9b69-2bd4e5a3fc27"},{"latitude":46.082206253889694,"longitude":14.496925295140894,"name":"Litostroj","ref_id":"103202","route_groups_on_station":["18"],"gtfs_id":"LPP:c326e479-ccc3-4915-8788-3fa189d0143e"},{"latitude":46.081988409248424,"longitude":14.513309218193669,"name":"Smelt","ref_id":"103072","route_groups_on_station":["6","8","11","18"],"gtfs_id":"LPP:9dfc0a62-bf4d-4670-83d0-4e26a6e56b32"},{"latitude":46.08237971525845,"longitude":14.49644774486002,"name":"Litostroj","ref_id":"103203","route_groups_on_station":["18"],"gtfs_id":"LPP:98a94a2a-894f-4ff0-9967-1dd986bf0cfd"},{"latitude":46.005996252853436,"longitude":14.491248092149483,"name":"Capuder","ref_id":"614041","route_groups_on_station":["19"],"gtfs_id":"LPP:8e7a488b-cd48-4243-92b0-42792d0e3bc1"},{"latitude":46.0824834450911,"longitude":14.497162258937326,"name":"LITOSTROJ","ref_id":"103201","route_groups_on_station":["3","18"],"gtfs_id":"IJPP:1167147"},{"latitude":46.06990084322027,"longitude":14.545038907167656,"name":"Žito","ref_id":"203151","route_groups_on_station":["2","7","12","24"],"gtfs_id":"LPP:59faa0f0-34b1-47cd-ba3a-3b6f0d684c00"},{"latitude":46.0520526416731,"longitude":14.448148909939905,"name":"BOKALCE","ref_id":"704041","route_groups_on_station":["14"],"gtfs_id":"LPP:5bc3addd-b076-4c60-b850-39f90e674b75"},{"latitude":46.04552077289621,"longitude":14.55945479031672,"name":"Hrušica","ref_id":"404011","route_groups_on_station":["13"],"gtfs_id":"LPP:d3a6cbf3-65f0-4db8-9a10-1460763eac8e"},{"latitude":46.08247902591515,"longitude":14.513067864628596,"name":"Smelt","ref_id":"103071","route_groups_on_station":["6","8","11","18"],"gtfs_id":"LPP:459f82d2-cbe4-414b-b66b-0b794ea958ed"},{"latitude":46.056036110371835,"longitude":14.556875788752874,"name":"Archinetova","ref_id":"303062","route_groups_on_station":["11"],"gtfs_id":"LPP:1a3351a1-563e-4174-b402-54bc0e2f5191"},{"latitude":46.07994380182011,"longitude":14.480160249455926,"name":"Kompas","ref_id":"803031","route_groups_on_station":["1","25"],"gtfs_id":"LPP:af2956ba-d922-4ec4-bfa7-b623c29e8b3e"},{"latitude":46.08044142663494,"longitude":14.52435971982523,"name":"C. STOŽICE P+R","ref_id":"103173","route_groups_on_station":["13","18","24"],"gtfs_id":"LPP:76f20fbf-afc4-4c7d-b51c-14f0878b38d8"},{"latitude":46.06522300905034,"longitude":14.550884288962937,"name":"Bratislavska","ref_id":"203182","route_groups_on_station":["7"],"gtfs_id":"LPP:ab4e1412-1ac4-4864-8833-c1ddf48bec20"},{"latitude":46.005497740072656,"longitude":14.48956374726739,"name":"Capuder","ref_id":"614042","route_groups_on_station":["19"],"gtfs_id":"LPP:f174a648-9e84-492d-9ccd-0756b49c773b"},{"latitude":46.0802337809771,"longitude":14.480376422622612,"name":"Kompas","ref_id":"803032","route_groups_on_station":["1","25"],"gtfs_id":"LPP:79d89180-8b07-4127-b7b4-1ac03d1cee9f"},{"latitude":46.0815441774787,"longitude":14.485270730061302,"name":"Ljubljanske brigade","ref_id":"803062","route_groups_on_station":["8"],"gtfs_id":"LPP:bd6d732b-65aa-4b59-be82-6ce1301e70d5"},{"latitude":46.045238141071216,"longitude":14.560274955295892,"name":"Hrušica","ref_id":"404012","route_groups_on_station":["13"],"gtfs_id":"LPP:0ff94f7b-275b-4cc4-bb27-e00842f5ad87"},{"latitude":46.08192233362285,"longitude":14.519762337861149,"name":"N. STOŽICE P+R","ref_id":"103081","route_groups_on_station":["20"],"gtfs_id":"LPP:c32ef99a-6752-47fe-94eb-a5134c7110af"},{"latitude":46.054550289716786,"longitude":14.558475498916497,"name":"Preglov trg","ref_id":"304012","route_groups_on_station":["20","22","25"],"gtfs_id":"LPP:bd1396f2-4dc8-4695-9bf1-c601157100d8"},{"latitude":46.06988053580321,"longitude":14.546728328766957,"name":"Žito","ref_id":"203152","route_groups_on_station":["2","7","12","24"],"gtfs_id":"LPP:cf6f67f5-f7df-4462-828b-481134217fad"},{"latitude":46.00479754260627,"longitude":14.51531095165669,"name":"Ižica","ref_id":"604061","route_groups_on_station":["19"],"gtfs_id":"LPP:258aeffc-294a-4919-bfb0-34f90dc19892"},{"latitude":46.066136148306626,"longitude":14.551472114295912,"name":"Bratislavska","ref_id":"203181","route_groups_on_station":["7"],"gtfs_id":"LPP:392949a1-1ada-4196-9073-6f392638ca49"},{"latitude":46.05470946616187,"longitude":14.55911427919455,"name":"Preglov trg","ref_id":"304011","route_groups_on_station":["20","22","25"],"gtfs_id":"LPP:5fa77d25-e7a3-42db-8cc9-52b612d5de19"},{"latitude":46.032074724136365,"longitude":14.44711026869543,"name":"Kozarje","ref_id":"704102","route_groups_on_station":["6"],"gtfs_id":"LPP:9c2e9262-7afe-44d3-8aaf-80afd45f9118"},{"latitude":46.00401718946149,"longitude":14.51543047560396,"name":"Ižica","ref_id":"604062","route_groups_on_station":["19"],"gtfs_id":"LPP:5be3b187-5735-4444-bee7-0665f60e6c83"},{"latitude":46.07691451776956,"longitude":14.467460711557852,"name":"Spar","ref_id":"803172","route_groups_on_station":["22"],"gtfs_id":"LPP:61f19c68-2d5e-4d76-bdd4-28709a347b5b"},{"latitude":46.08506371838169,"longitude":14.507559767587866,"name":"Gorjančeva","ref_id":"103091","route_groups_on_station":["14","18"],"gtfs_id":"LPP:4ca9e64c-29ad-4391-a6f2-7e1ae022d5bf"},{"latitude":46.076795992705215,"longitude":14.466883697404434,"name":"Spar","ref_id":"803171","route_groups_on_station":["22"],"gtfs_id":"LPP:cb05ea76-5fc1-4162-b432-a914b63604d0"},{"latitude":46.07466941360019,"longitude":14.463195761312782,"name":"Bratov Babnik","ref_id":"803162","route_groups_on_station":["22"],"gtfs_id":"LPP:b5e26d7f-8a91-4360-9811-2e8e05d27382"},{"latitude":46.070414632374494,"longitude":14.548994372413928,"name":"Nove Jarše","ref_id":"203161","route_groups_on_station":["2","7","12","24"],"gtfs_id":"LPP:7fad8003-fb10-489d-bf8d-6d433310ad90"},{"latitude":46.06212220809475,"longitude":14.556759174904329,"name":"Leskoškova","ref_id":"204011","route_groups_on_station":["7","27"]},{"latitude":46.07905338146486,"longitude":14.471246135426199,"name":"Čebelarska","ref_id":"803111","route_groups_on_station":["7"],"gtfs_id":"LPP:476b2caa-710a-47fe-9743-4d75d7ada5fb"},{"latitude":46.074636956491695,"longitude":14.462795642773287,"name":"Bratov Babnik","ref_id":"803161","route_groups_on_station":["22"],"gtfs_id":"LPP:1536cb2e-acd3-49cb-8f06-bb8cd40c0c02"},{"latitude":46.004047112868484,"longitude":14.485861227777946,"name":"Zidarjevec 2","ref_id":"614101","route_groups_on_station":["19"],"gtfs_id":"LPP:21fba303-9465-42e6-8942-eaff85a2b40c"},{"latitude":46.069396680877624,"longitude":14.550605276927225,"name":"NOVE JARŠE","ref_id":"203171","route_groups_on_station":["2"],"gtfs_id":"LPP:2838f674-f6e9-4eb5-a99c-1d0ac7903ca1"},{"latitude":46.031453120941045,"longitude":14.445826200574766,"name":"Kozarje","ref_id":"704101","route_groups_on_station":["6"],"gtfs_id":"LPP:29589594-5959-4efb-8dda-7348e4e500a0"},{"latitude":46.079275664032366,"longitude":14.471298915684589,"name":"Čebelarska","ref_id":"803112","route_groups_on_station":["7"],"gtfs_id":"LPP:a9473958-e505-4c16-8498-486b06a47856"},{"latitude":46.073817821507866,"longitude":14.46122878187968,"name":"Draveljska gmajna","ref_id":"803151","route_groups_on_station":["5"],"gtfs_id":"LPP:0810f07b-94d6-442f-b10d-bf8210c4ed47"},{"latitude":46.04507618350817,"longitude":14.443014886726662,"name":"Kozarje gmajna","ref_id":"714022","route_groups_on_station":["51"]},{"latitude":46.056145386204506,"longitude":14.560691650271487,"name":"Osenjakova","ref_id":"304021","route_groups_on_station":["11"],"gtfs_id":"LPP:59d96e2c-3ee3-4581-840a-3ddaf0003743"},{"latitude":46.07397578782793,"longitude":14.461309928854817,"name":"Draveljska gmajna","ref_id":"803152","route_groups_on_station":["5"],"gtfs_id":"LPP:26d86ffa-b8df-49aa-a9c0-5fa7d3cfba77"},{"latitude":46.0450446055724,"longitude":14.442885291065345,"name":"Kozarje gmajna","ref_id":"714021","route_groups_on_station":["51"]},{"latitude":46.00373727219131,"longitude":14.484721382287237,"name":"Zidarjevec 2","ref_id":"614102","route_groups_on_station":["19"],"gtfs_id":"LPP:91745353-dd19-49ee-beaf-332e546dcceb"},{"latitude":46.08608378429021,"longitude":14.507828590032915,"name":"Gorjančeva","ref_id":"103092","route_groups_on_station":["14","18"],"gtfs_id":"LPP:5c15a390-36b6-47a9-9d84-0c7160157c1d"},{"latitude":46.036774522660465,"longitude":14.442957848948176,"name":"Kozarje GD","ref_id":"714012","route_groups_on_station":["51"],"gtfs_id":"IJPP:1126956"},{"latitude":46.03704867885602,"longitude":14.442791029651481,"name":"Kozarje GD","ref_id":"714011","route_groups_on_station":["51"]},{"latitude":46.07948397012336,"longitude":14.536585485505842,"name":"TOMAČEVO","ref_id":"203081","route_groups_on_station":["19"],"gtfs_id":"LPP:3f996624-8134-4eec-9742-70111db659c1"},{"latitude":46.0618956456899,"longitude":14.558658967598246,"name":"Leskoškova","ref_id":"204012","route_groups_on_station":["7","27"],"gtfs_id":"LPP:02c61e3f-2d2e-4b42-b695-bbd3cc672f6b"},{"latitude":46.055650787054674,"longitude":14.56220783065138,"name":"Osenjakova","ref_id":"304022","route_groups_on_station":["11"],"gtfs_id":"LPP:79a5bacd-8b59-4d83-99e8-26e3c5b1490b"},{"latitude":46.08595860424048,"longitude":14.513835056322346,"name":"Stožice","ref_id":"103101","route_groups_on_station":["6","8","11","18"],"gtfs_id":"LPP:2ec182e2-769f-427f-b9b5-c4118890cb96"},{"latitude":46.07850108330316,"longitude":14.467026670881815,"name":"Kamna Gorica","ref_id":"803182","route_groups_on_station":["22"],"gtfs_id":"LPP:524d67dd-fbb0-4f6a-9199-f095123044ab"},{"latitude":46.08601128899738,"longitude":14.514098228438005,"name":"Stožice","ref_id":"103102","route_groups_on_station":["6","8","11","18"],"gtfs_id":"LPP:7fdce743-a4be-44d7-8658-0a259a18ad30"},{"latitude":46.05454945675654,"longitude":14.562848332718502,"name":"Rusjanov trg","ref_id":"304032","route_groups_on_station":["20","22","25"],"gtfs_id":"LPP:c0fb12dd-8cab-40da-a3aa-e8de9c6d09ed"},{"latitude":46.07894157878296,"longitude":14.466569478529065,"name":"Kamna Gorica","ref_id":"803183","route_groups_on_station":["22"],"gtfs_id":"LPP:391bf42a-68a3-400a-baea-0c708f327325"},{"latitude":46.08365056130859,"longitude":14.477962836151937,"name":"Dravlje","ref_id":"803042","route_groups_on_station":["1","25"],"gtfs_id":"LPP:1faa072c-478b-4656-8df3-84167a9a4bbb"},{"latitude":46.002818641904554,"longitude":14.482654289625952,"name":"Zidarjevec","ref_id":"614051","route_groups_on_station":["19"],"gtfs_id":"LPP:2e62f411-936d-4a10-96ed-2d8fe95d6d65"},{"latitude":46.054706302273175,"longitude":14.564022833746582,"name":"Rusjanov trg","ref_id":"304031","route_groups_on_station":["20","22","25"],"gtfs_id":"LPP:7c149b59-2bc6-45cb-95c8-69e18a0db627"},{"latitude":46.002618442089236,"longitude":14.481926858182334,"name":"Zidarjevec","ref_id":"614052","route_groups_on_station":["19"],"gtfs_id":"LPP:15af3c66-ad74-4f41-92f7-92e2ff72a51d"},{"latitude":46.08396313106501,"longitude":14.477337390805207,"name":"Dravlje","ref_id":"803041","route_groups_on_station":["1","25"],"gtfs_id":"LPP:77c4dfcc-1122-4896-9983-8a5bd11320de"},{"latitude":46.073698856064496,"longitude":14.456132191540629,"name":"Pod Kamno gorico","ref_id":"804191","route_groups_on_station":["5"],"gtfs_id":"LPP:1aa7e441-8646-4d1d-88bd-ab004758ffc4"},{"latitude":46.079454122137804,"longitude":14.465120644598933,"name":"KAMNA GORICA","ref_id":"803181","route_groups_on_station":["23"],"gtfs_id":"LPP:995cbd67-507b-4c32-b794-0ff48e0a3de9"},{"latitude":46.052132876991635,"longitude":14.565950217680992,"name":"FUŽINE P+R","ref_id":"304051","route_groups_on_station":["20","22"],"gtfs_id":"LPP:e0bcd677-6012-4c90-a884-44dffafdffec"},{"latitude":46.08166433524095,"longitude":14.469369426052697,"name":"Plešičeva","ref_id":"803121","route_groups_on_station":["7"],"gtfs_id":"LPP:ba681dbc-ea72-4685-ad98-c5ed496510e6"},{"latitude":46.000358410250655,"longitude":14.51671173256738,"name":"Havptmance","ref_id":"604041","route_groups_on_station":["19"],"gtfs_id":"LPP:1f02ab68-e4a0-4783-ae8a-39ccd679f2cc"},{"latitude":46.07425960143249,"longitude":14.455667726391813,"name":"Pod Kamno Gorico","ref_id":"804193","route_groups_on_station":["23"],"gtfs_id":"LPP:2beb7011-982a-4349-be22-addf1c3bdec7"},{"latitude":46.08586857518195,"longitude":14.48058918870385,"name":"Tehnounion","ref_id":"803071","route_groups_on_station":["8"],"gtfs_id":"LPP:6330ad8d-b582-4c92-bc7e-d3f206264f04"},{"latitude":46.055174358299084,"longitude":14.565897378795855,"name":"Chengdujska","ref_id":"304041","route_groups_on_station":["11"],"gtfs_id":"LPP:16d19639-a788-4df6-a168-6f8c3652ded7"},{"latitude":45.999866386776276,"longitude":14.516749554301231,"name":"Havptmance","ref_id":"604042","route_groups_on_station":["19"],"gtfs_id":"LPP:98a75a4c-0ef8-4efa-8f0a-384fe8eafce0"},{"latitude":46.08246148415901,"longitude":14.469025008399193,"name":"Plešičeva","ref_id":"803122","route_groups_on_station":["7"],"gtfs_id":"LPP:d5735919-60bb-4720-a695-9f5155a4f109"},{"latitude":46.07413293447489,"longitude":14.453938463984318,"name":"Omersova","ref_id":"804201","route_groups_on_station":["5","23"],"gtfs_id":"LPP:786a15d4-dd6b-42bb-a5c9-6ce994b5be9e"},{"latitude":46.086704501484974,"longitude":14.479930056755268,"name":"Tehnounion","ref_id":"803072","route_groups_on_station":["8"],"gtfs_id":"LPP:4c277b3f-c427-404b-ace3-2cd51656318f"},{"latitude":46.08983656591935,"longitude":14.508823815138317,"name":"7. septembra","ref_id":"103112","route_groups_on_station":["14","18"],"gtfs_id":"LPP:5c8bdb89-116a-4d5d-9db1-9be443070380"},{"latitude":46.05487393013004,"longitude":14.567650095643604,"name":"Chengdujska","ref_id":"304042","route_groups_on_station":["11","20","25"],"gtfs_id":"LPP:25cde952-4896-4977-b229-75e09b3e3661"},{"latitude":46.07410706544992,"longitude":14.452891556212226,"name":"Omersova","ref_id":"804202","route_groups_on_station":["5","23"],"gtfs_id":"LPP:e9382efd-d64d-46b0-9a7d-a4e6a0188725"},{"latitude":46.029595645162175,"longitude":14.439836280552415,"name":"Na Gmajnici","ref_id":"704062","route_groups_on_station":["6","45","46","47","48","54","56"],"gtfs_id":"LPP:5c246f67-4431-4968-8d64-2ae4b823e360"},{"latitude":46.08999320304481,"longitude":14.508610364128018,"name":"7. septembra","ref_id":"103111","route_groups_on_station":["14","18"],"gtfs_id":"LPP:6459bd02-d8f8-413e-9402-10b916f09a4f"},{"latitude":46.038798929405914,"longitude":14.569472394179478,"name":"Hruševska","ref_id":"404112","route_groups_on_station":["24"],"gtfs_id":"LPP:f66a1f18-4c18-4317-b929-fb616cc7cebc"},{"latitude":46.03890233781394,"longitude":14.56980931847128,"name":"Hruševska","ref_id":"404111","route_groups_on_station":["24"],"gtfs_id":"LPP:6e7cab20-d7e3-474f-9a5e-f1e0ca6fae53"},{"latitude":46.04461515979244,"longitude":14.570230812724304,"name":"Cesta v Bizovik","ref_id":"404021","route_groups_on_station":["13"],"gtfs_id":"LPP:7558099b-08a3-43bc-8056-49bcc5900a03"},{"latitude":46.090227781522955,"longitude":14.512219374598487,"name":"Čerinova","ref_id":"103121","route_groups_on_station":["14"],"gtfs_id":"LPP:a769d1e9-8727-4190-b56c-5cdd8a49333d"},{"latitude":46.09029034591528,"longitude":14.512337290354553,"name":"Čerinova","ref_id":"103122","route_groups_on_station":["14"],"gtfs_id":"LPP:010c271e-49ca-45a5-91ac-8ba8d41ee7f3"},{"latitude":46.02919727962657,"longitude":14.439073144068358,"name":"Na Gmajnici","ref_id":"704061","route_groups_on_station":["6","45","46","47","48","49","54","56"],"gtfs_id":"LPP:0c6d0a32-5673-45fa-9d50-04d8039cbda1"},{"latitude":46.0902077278098,"longitude":14.513774875368767,"name":"Ruski car","ref_id":"103131","route_groups_on_station":["6","8","11"],"gtfs_id":"LPP:43df2657-d56f-4fc4-8c40-49180cbbe90c"},{"latitude":46.04881103060299,"longitude":14.435779309494055,"name":"Razori Rogovilc","ref_id":"714032","route_groups_on_station":["51"],"gtfs_id":"IJPP:1129291"},{"latitude":46.04434839102544,"longitude":14.57093671500796,"name":"Cesta v Bizovik","ref_id":"404022","route_groups_on_station":["13"],"gtfs_id":"LPP:52e5d1c1-28c9-4ed2-b0ec-5bf7311be753"},{"latitude":46.00044205747922,"longitude":14.476995551387585,"name":"Rutar","ref_id":"614061","route_groups_on_station":["19"],"gtfs_id":"LPP:117abbb4-5575-4020-aac4-2048f8d34b50"},{"latitude":46.086883195226065,"longitude":14.474740255644925,"name":"Trata","ref_id":"804012","route_groups_on_station":["1","25","60"],"gtfs_id":"LPP:9f01f25f-9a5b-459a-96da-222ef81faf51"},{"latitude":46.048908969793246,"longitude":14.43536291254065,"name":"Razori Rogovilc","ref_id":"714031","route_groups_on_station":["51"],"gtfs_id":"IJPP:1129292"},{"latitude":46.073624984904015,"longitude":14.450082904363898,"name":"Murkova","ref_id":"804211","route_groups_on_station":["5","23"],"gtfs_id":"LPP:fdff5f9c-6c02-4fc1-a004-7032b17fa37a"},{"latitude":46.09063017127221,"longitude":14.5140066146783,"name":"Ruski car","ref_id":"103132","route_groups_on_station":["6","8","11"],"gtfs_id":"LPP:eee4abae-e720-4776-b6c7-0099d0119246"},{"latitude":46.0779913931611,"longitude":14.455469889811692,"name":"Krivec","ref_id":"804412","route_groups_on_station":["23"],"gtfs_id":"LPP:18d010ca-0244-4928-82cb-47af0836a1bb"},{"latitude":46.037425043529595,"longitude":14.571088150748123,"name":"Bizovik","ref_id":"404122","route_groups_on_station":["24"],"gtfs_id":"LPP:f0661242-947b-4937-a9ce-d2a135cd62a7"},{"latitude":46.03750319864079,"longitude":14.571140239015145,"name":"Bizovik","ref_id":"404121","route_groups_on_station":["24"],"gtfs_id":"LPP:7c37b809-4d6d-497c-a53d-38663e91c088"},{"latitude":46.08721837264568,"longitude":14.474073807949543,"name":"Trata","ref_id":"804011","route_groups_on_station":["1","25","60"],"gtfs_id":"LPP:9807573b-8821-40e4-b891-a5cea6e23b3d"},{"latitude":46.07848384105958,"longitude":14.455398359458208,"name":"Krivec","ref_id":"804411","route_groups_on_station":["23"],"gtfs_id":"LPP:144ab380-6586-43ce-b216-2e66362b6eca"},{"latitude":45.99992145590606,"longitude":14.47558538308747,"name":"Rutar","ref_id":"614062","route_groups_on_station":["19"],"gtfs_id":"LPP:2496479b-f855-403d-bce8-2a4d9988665d"},{"latitude":46.08871555351018,"longitude":14.47761177934023,"name":"IMP","ref_id":"804161","route_groups_on_station":["8"],"gtfs_id":"LPP:1e4be02a-ac61-41bc-b9b5-1ef7850313ed"},{"latitude":46.06326202420388,"longitude":14.566776405732693,"name":"LETALIŠKA P+R","ref_id":"204051","route_groups_on_station":["7"],"gtfs_id":"LPP:dc7b6fb3-15db-4c7e-9fa1-424943178ce6"},{"latitude":46.07427889365109,"longitude":14.448434218110016,"name":"Murkova","ref_id":"804212","route_groups_on_station":["5","23"],"gtfs_id":"LPP:13ceaf6c-9650-45c3-b449-64a0e5094d18"},{"latitude":46.089302215825114,"longitude":14.47725790858264,"name":"IMP","ref_id":"804162","route_groups_on_station":["8"],"gtfs_id":"LPP:53ec687a-6f0c-4bb7-b1b4-606e7dcfada9"},{"latitude":46.00643587085992,"longitude":14.548618669158419,"name":"Pod Hribom","ref_id":"504072","route_groups_on_station":["3","82"],"gtfs_id":"LPP:caac4c1a-13e4-4afa-b467-65d90a8fbd44"},{"latitude":46.062238052131576,"longitude":14.569026213269758,"name":"Letališka","ref_id":"204041","route_groups_on_station":["27"],"gtfs_id":"LPP:192b7b6a-b138-4569-a4f3-86bef6b20810"},{"latitude":46.00631626722318,"longitude":14.549175631086232,"name":"Pod Hribom","ref_id":"504071","route_groups_on_station":["3","82"],"gtfs_id":"LPP:4a90e424-11ab-43a8-b7e9-1c4f42fe2b7c"},{"latitude":46.08583145868664,"longitude":14.464862787777708,"name":"Andreja Bitenca","ref_id":"804171","route_groups_on_station":["7"],"gtfs_id":"LPP:1ef524bd-2bf3-4c47-add3-044374897443"},{"latitude":46.062033922839234,"longitude":14.570114039501206,"name":"Letališka","ref_id":"204042","route_groups_on_station":["27"],"gtfs_id":"LPP:f5d8583f-6e9d-4996-b803-74bf3cd0b602"},{"latitude":46.09348340587769,"longitude":14.51130332729349,"name":"Kališnikov trg","ref_id":"104022","route_groups_on_station":["14"],"gtfs_id":"LPP:93928408-7b36-41f9-9b62-fec53e14b4e2"},{"latitude":46.08623408148392,"longitude":14.464991534270087,"name":"Andreja Bitenca","ref_id":"804172","route_groups_on_station":["7"],"gtfs_id":"LPP:06348c07-2fb0-4dfb-a938-aaef614a7f68"},{"latitude":46.093737460644874,"longitude":14.510586293424407,"name":"Kališnikov trg","ref_id":"104021","route_groups_on_station":["14"],"gtfs_id":"LPP:1069d764-9345-425d-8c4d-12d6ffa1fde1"},{"latitude":46.0833631625642,"longitude":14.458467139435953,"name":"Zapuže","ref_id":"804381","route_groups_on_station":["22","23"],"gtfs_id":"LPP:95732ece-1658-4e11-9b5f-b6ae5552e638"},{"latitude":46.08344225294732,"longitude":14.458579264758509,"name":"Zapuže","ref_id":"804382","route_groups_on_station":["22","23"],"gtfs_id":"LPP:8eeea585-6168-45b8-a5d4-336e61826043"},{"latitude":46.09352497210702,"longitude":14.515380318364894,"name":"Stara Ježica","ref_id":"104372","route_groups_on_station":["6","8","11"],"gtfs_id":"LPP:40fcc1b9-2c42-4db8-bd48-d431efc8a3fd"},{"latitude":46.03269824749161,"longitude":14.432245248944188,"name":"Podsmreka Rotar","ref_id":"715041","route_groups_on_station":["56"]},{"latitude":46.0285446123191,"longitude":14.43355617742844,"name":"Podsmreka pri Gorjancu","ref_id":"715052","route_groups_on_station":["56"],"gtfs_id":"IJPP:1165703"},{"latitude":46.028545094767054,"longitude":14.43341263033979,"name":"Podsmreka pri Gorjancu","ref_id":"715051","route_groups_on_station":["56"]},{"latitude":46.08983371687477,"longitude":14.471766286407739,"name":"Prušnikova","ref_id":"804021","route_groups_on_station":["1","8","25"],"gtfs_id":"LPP:df63651e-45ab-4487-9429-9e604415b35c"},{"latitude":46.03531217405725,"longitude":14.430841763815906,"name":"Podsmreka Rotar","ref_id":"715042","route_groups_on_station":["56"],"gtfs_id":"IJPP:1128591"},{"latitude":45.99777585643712,"longitude":14.470940304158988,"name":"Lipe","ref_id":"614072","route_groups_on_station":["19"],"gtfs_id":"LPP:b0d473cd-f35e-4a30-8d0d-70f16b92e8e8"},{"latitude":46.09517610246988,"longitude":14.503263183232523,"name":"SAVLJE","ref_id":"104011","route_groups_on_station":["14"],"gtfs_id":"LPP:ec88f05d-3035-4f09-8560-72571bc0b125"},{"latitude":46.07460468692656,"longitude":14.443897770003396,"name":"PODUTIK","ref_id":"804221","route_groups_on_station":["5","23"],"gtfs_id":"LPP:13d6dac7-dc00-416e-a8c0-0d6967e4014e"},{"latitude":46.0945585542683,"longitude":14.515756252979052,"name":"Stara Ježica","ref_id":"104371","route_groups_on_station":["6","8","11"],"gtfs_id":"LPP:9583dbdd-06fd-411e-88dd-af8f89e2caaa"},{"latitude":46.03920424728679,"longitude":14.429254002410232,"name":"Podsmreka GD","ref_id":"715032","route_groups_on_station":["56"],"gtfs_id":"IJPP:1128585"},{"latitude":46.04418076571979,"longitude":14.428883979175833,"name":"Komanija","ref_id":"715022","route_groups_on_station":["56"],"gtfs_id":"IJPP:1126308"},{"latitude":46.0835281841898,"longitude":14.455612329233134,"name":"Kamnogoriška","ref_id":"804391","route_groups_on_station":["22","23"],"gtfs_id":"LPP:f784b27a-1509-4eec-bd52-6beee2b9530b"},{"latitude":46.0545680008407,"longitude":14.575839786391432,"name":"Studenec","ref_id":"304061","route_groups_on_station":["11","20","25","27"],"gtfs_id":"LPP:66a82f60-b1d1-4251-a715-178300014f18"},{"latitude":46.04395198912802,"longitude":14.428789581189774,"name":"Komanija","ref_id":"715021","route_groups_on_station":["56"],"gtfs_id":"IJPP:1126307"},{"latitude":46.08359239164463,"longitude":14.45559801501054,"name":"Kamnogoriška","ref_id":"804392","route_groups_on_station":["22","23"],"gtfs_id":"LPP:fcfe6ac9-74b3-4c13-96b7-6041f1454813"},{"latitude":46.03916061491306,"longitude":14.429097205143602,"name":"Podsmreka GD","ref_id":"715031","route_groups_on_station":["56"]},{"latitude":45.99734534120731,"longitude":14.470193959913685,"name":"Lipe","ref_id":"614071","route_groups_on_station":["19"],"gtfs_id":"LPP:e9035f9a-28be-450a-a30c-7178134ff26b"},{"latitude":46.08614574210427,"longitude":14.459642354485272,"name":"Pržanec","ref_id":"804231","route_groups_on_station":["7"],"gtfs_id":"LPP:c70ad4c4-6c37-4f31-83aa-921dc8bc15a4"},{"latitude":46.091017334679606,"longitude":14.471064909915299,"name":"Prušnikova","ref_id":"804022","route_groups_on_station":["1","8","25"],"gtfs_id":"LPP:c5ec5e81-2ce4-452d-bd7a-595de4f8b34f"},{"latitude":46.086313047719884,"longitude":14.459278072200114,"name":"Pržanec","ref_id":"804232","route_groups_on_station":["7"],"gtfs_id":"LPP:d4c25d68-c340-431b-a646-7680fe0cefee"},{"latitude":46.07479971992025,"longitude":14.563823169618452,"name":"Hrastje","ref_id":"204062","route_groups_on_station":["12","24"],"gtfs_id":"LPP:0b6960bb-2431-48c3-9e64-3cbf5c57ea96"},{"latitude":46.038628958711215,"longitude":14.57816250685352,"name":"Dobrunjska c.","ref_id":"404181","route_groups_on_station":["24"],"gtfs_id":"LPP:1cc5f00f-c982-4016-8553-40a3da4f36ad"},{"latitude":46.07505808713701,"longitude":14.5639621438388,"name":"Hrastje","ref_id":"204061","route_groups_on_station":["12","24"],"gtfs_id":"LPP:169789c5-0251-47a6-800a-74ff3dffe04d"},{"latitude":46.03854628483832,"longitude":14.578339177386352,"name":"Dobrunjska c.","ref_id":"404182","route_groups_on_station":["24"],"gtfs_id":"LPP:5aeac892-889f-4c5a-8fde-67e6ac096242"},{"latitude":46.054170612779274,"longitude":14.577335033623658,"name":"Studenec","ref_id":"304062","route_groups_on_station":["11","20","25","27"],"gtfs_id":"LPP:86a75ffc-a78f-401f-8991-2eb0371417b2"},{"latitude":46.08206429124962,"longitude":14.450661070256245,"name":"Dolnice","ref_id":"804401","route_groups_on_station":["22","23"],"gtfs_id":"LPP:98b60d07-8054-441a-be44-be7aa24f4253"},{"latitude":46.04692008268994,"longitude":14.42726114203812,"name":"Draževnik","ref_id":"715011","route_groups_on_station":["56"],"gtfs_id":"IJPP:1124753"},{"latitude":46.04327217720917,"longitude":14.579272395285477,"name":"Dobrunje","ref_id":"404031","route_groups_on_station":["13"],"gtfs_id":"LPP:e0c253d0-1de7-4add-ac75-8b16151fa462"},{"latitude":46.04742950605478,"longitude":14.427062388802874,"name":"Draževnik","ref_id":"715012","route_groups_on_station":["56"],"gtfs_id":"IJPP:1124754"},{"latitude":46.082081551857094,"longitude":14.450289721043827,"name":"Dolnice","ref_id":"804402","route_groups_on_station":["22","23"],"gtfs_id":"LPP:6a774daa-3547-4128-b304-aa2d17d4391a"},{"latitude":46.0429388708784,"longitude":14.580504697737704,"name":"Dobrunje","ref_id":"404032","route_groups_on_station":["13"],"gtfs_id":"LPP:3a50f545-2fe2-45a0-8ed6-01635603efed"},{"latitude":46.08834018609893,"longitude":14.458852137874047,"name":"PRŽAN","ref_id":"804181","route_groups_on_station":["7"],"gtfs_id":"LPP:ee03ecf6-db6d-4ecc-90cd-5b3afc8afb91"},{"latitude":46.09259883834842,"longitude":14.469314215871762,"name":"Podgora","ref_id":"804031","route_groups_on_station":["1","8","25"],"gtfs_id":"LPP:5ddf10c0-90a5-4dbf-992c-23c0505674aa"},{"latitude":46.09745072769389,"longitude":14.516941392809208,"name":"Ježica","ref_id":"104031","route_groups_on_station":["6","8","11"],"gtfs_id":"LPP:21764d19-62cc-49fd-bac9-403aeac6a6b9"},{"latitude":46.0974909198094,"longitude":14.516820663473515,"name":"JEŽICA","ref_id":"104033","route_groups_on_station":["21"],"gtfs_id":"LPP:b8533150-cf69-441a-8fc4-18f39cbef16b"},{"latitude":46.0506939515184,"longitude":14.424764182178144,"name":"Razori K","ref_id":"714041","route_groups_on_station":["51"],"gtfs_id":"IJPP:1129288"},{"latitude":46.0982228303039,"longitude":14.514019674405032,"name":"JEŽICA P+R","ref_id":"104321","route_groups_on_station":["11"],"gtfs_id":"LPP:f9d70942-e517-4560-8655-99481edd2b95"},{"latitude":46.09811714401931,"longitude":14.516990622398518,"name":"Ježica","ref_id":"104032","route_groups_on_station":["6","8","11","21"],"gtfs_id":"LPP:db13a26e-19d4-4b8a-a78a-01ef25d58834"},{"latitude":46.093683757026334,"longitude":14.468710638679607,"name":"Podgora","ref_id":"804032","route_groups_on_station":["1","8","25"],"gtfs_id":"LPP:79325942-629a-4766-a34a-525f8edf8cc5"},{"latitude":46.001586385135866,"longitude":14.554267062027478,"name":"Lavrica pri Malči","ref_id":"504082","route_groups_on_station":["3","68","69","76","82"],"gtfs_id":"LPP:4afd573d-abb7-4209-9b28-5c34811eb3ef"},{"latitude":46.05096922003402,"longitude":14.424159920526453,"name":"Razori K","ref_id":"714042","route_groups_on_station":["51","56"],"gtfs_id":"IJPP:1129290"},{"latitude":45.99503752646473,"longitude":14.46525089142878,"name":"Kozler","ref_id":"614081","route_groups_on_station":["19"],"gtfs_id":"LPP:bdd68b01-e9a1-4270-be50-8b5c7bd39a1c"},{"latitude":45.9950929174033,"longitude":14.46509274313976,"name":"Kozler","ref_id":"614082","route_groups_on_station":["19"],"gtfs_id":"LPP:3f01eb40-651e-4fad-aff9-2ee27f259f64"},{"latitude":46.03824313204784,"longitude":14.582726423721223,"name":"Dobrunje-2","ref_id":"404131","route_groups_on_station":["24"],"gtfs_id":"LPP:aa3ce006-1975-496a-abc6-a98ec5e87652"},{"latitude":46.038139455187306,"longitude":14.582949928930265,"name":"Dobrunje-2","ref_id":"404132","route_groups_on_station":["24"],"gtfs_id":"LPP:15eaf9b9-db6d-4586-9ad2-5bfa99719bfd"},{"latitude":46.07663810059167,"longitude":14.568353875679334,"name":"Sneberje","ref_id":"204072","route_groups_on_station":["12","24"],"gtfs_id":"LPP:f4c5028b-48a4-4d0e-a91c-81a858923ddd"},{"latitude":46.08215987039985,"longitude":14.44389475105038,"name":"Zakrajškova","ref_id":"804501","route_groups_on_station":["22"],"gtfs_id":"LPP:9b9d2948-7538-409c-9bfc-42c0b74c41a8"},{"latitude":46.05402947676161,"longitude":14.582695524975758,"name":"Polje","ref_id":"304071","route_groups_on_station":["11","20","25","27"],"gtfs_id":"LPP:7310c006-62b8-4f94-bb9c-d5c26cb3faad"},